{"type":"FeatureCollection", "features": [
{"type":"Feature","geometry":{"type":"Point","coordinates":[-2.9387057072117955,35.28949229400686]},"properties":{"area_name":"Centro","area_code":"","data_type":"point","region_code":"ML","region_name":"Melilla"}},
{"type":"Feature","geometry":{"type":"Point","coordinates":[-2.9541750798165083,35.28827653358954]},"properties":{"area_name":"Oeste","area_code":"","data_type":"point","region_code":"ML","region_name":"Melilla"}},
{"type":"Feature","geometry":{"type":"Point","coordinates":[-2.94995180822508,35.29658787727816]},"properties":{"area_name":"Norte","area_code":"","data_type":"point","region_code":"ML","region_name":"Melilla"}},
{"type":"Feature","geometry":{"type":"Point","coordinates":[-2.9412832468475756,35.28280649277124]},"properties":{"area_name":"Este","area_code":"","data_type":"point","region_code":"ML","region_name":"Melilla"}},
{"type":"Feature","geometry":{"type":"Point","coordinates":[-5.307249389760813,35.88557549274172]},"properties":{"area_name":"Recinto","area_code":"","data_type":"point","region_code":"CE","region_name":"Ceuta"}},
{"type":"Feature","geometry":{"type":"Point","coordinates":[-5.327825911529374,35.8884383723303]},"properties":{"area_name":"Otero","area_code":"","data_type":"point","region_code":"CE","region_name":"Ceuta"}},
{"type":"Feature","geometry":{"type":"Point","coordinates":[-5.343913179453267,35.87379162905515]},"properties":{"area_name":"Tarajal","area_code":"","data_type":"point","region_code":"CE","region_name":"Ceuta"}},
{"type":"Feature","geometry":{"type":"Point","coordinates":[-3.3659991219132324,40.481648097745094]},"properties":{"area_code":"MD-CS-1","area_name":"C.S. Carmen Calzado","region_name":"Madrid","region_code":"MD","data_type":"point"}},
{"type":"Feature","geometry":{"type":"Point","coordinates":[-3.350480466358204,40.487732240796575]},"properties":{"area_code":"MD-CS-2","area_name":"C.S. Juan de Austria","region_name":"Madrid","region_code":"MD","data_type":"point"}},
{"type":"Feature","geometry":{"type":"Point","coordinates":[-3.39386446444032,40.481223165362934]},"properties":{"area_code":"MD-CS-3","area_name":"C.S. La Garena","region_name":"Madrid","region_code":"MD","data_type":"point"}},
{"type":"Feature","geometry":{"type":"Point","coordinates":[-3.36812222089191,40.47505575690033]},"properties":{"area_code":"MD-CS-4","area_name":"C.S. Luis Vives","region_name":"Madrid","region_code":"MD","data_type":"point"}},
{"type":"Feature","geometry":{"type":"Point","coordinates":[-3.357353613456205,40.48216163884699]},"properties":{"area_code":"MD-CS-5","area_name":"C.S. Manuel Merino","region_name":"Madrid","region_code":"MD","data_type":"point"}},
{"type":"Feature","geometry":{"type":"Point","coordinates":[-3.3577099490684925,40.48927765959869]},"properties":{"area_code":"MD-CS-6","area_name":"C.S. María de Guzmán","region_name":"Madrid","region_code":"MD","data_type":"point"}},
{"type":"Feature","geometry":{"type":"Point","coordinates":[-3.3712314509276013,40.51050524972413]},"properties":{"area_code":"MD-CS-7","area_name":"C.S. Miguel de Cervantes","region_name":"Madrid","region_code":"MD","data_type":"point"}},
{"type":"Feature","geometry":{"type":"Point","coordinates":[-3.3770981449525808,40.47273308181651]},"properties":{"area_code":"MD-CS-8","area_name":"C.S. Nuestra Señora del Pilar","region_name":"Madrid","region_code":"MD","data_type":"point"}},
{"type":"Feature","geometry":{"type":"Point","coordinates":[-3.37959850160292,40.47881143658915]},"properties":{"area_code":"MD-CS-9","area_name":"C.S. Puerta de Madrid","region_name":"Madrid","region_code":"MD","data_type":"point"}},
{"type":"Feature","geometry":{"type":"Point","coordinates":[-3.3769856381381165,40.49258576090266]},"properties":{"area_code":"MD-CS-10","area_name":"C.S. Reyes Magos","region_name":"Madrid","region_code":"MD","data_type":"point"}},
{"type":"Feature","geometry":{"type":"Point","coordinates":[-3.6312943132633166,40.537971425752694]},"properties":{"area_code":"MD-CS-11","area_name":"C.S. Arroyo de la Vega","region_name":"Madrid","region_code":"MD","data_type":"point"}},
{"type":"Feature","geometry":{"type":"Point","coordinates":[-3.640118660434175,40.540832739966184]},"properties":{"area_code":"MD-CS-12","area_name":"C.S. La Chopera","region_name":"Madrid","region_code":"MD","data_type":"point"}},
{"type":"Feature","geometry":{"type":"Point","coordinates":[-3.6459294115655516,40.54461115076834]},"properties":{"area_code":"MD-CS-13","area_name":"C.S. Marqués de Valdavia","region_name":"Madrid","region_code":"MD","data_type":"point"}},
{"type":"Feature","geometry":{"type":"Point","coordinates":[-3.6372202234791877,40.54774955252918]},"properties":{"area_code":"MD-CS-14","area_name":"C.S. Miraflores","region_name":"Madrid","region_code":"MD","data_type":"point"}},
{"type":"Feature","geometry":{"type":"Point","coordinates":[-3.6508279320075063,40.550466444188686]},"properties":{"area_code":"MD-CS-15","area_name":"C.S. Valdelasfuentes","region_name":"Madrid","region_code":"MD","data_type":"point"}},
{"type":"Feature","geometry":{"type":"Point","coordinates":[-3.8112229611613504,40.345371592353345]},"properties":{"area_code":"MD-CS-16","area_name":"C.S. Doctor Pedro Laín Entralgo","region_name":"Madrid","region_code":"MD","data_type":"point"}},
{"type":"Feature","geometry":{"type":"Point","coordinates":[-3.829072143803767,40.34818199252999]},"properties":{"area_code":"MD-CS-17","area_name":"C.S. Dr. Trueta","region_name":"Madrid","region_code":"MD","data_type":"point"}},
{"type":"Feature","geometry":{"type":"Point","coordinates":[-3.8208418201224053,40.342384774081566]},"properties":{"area_code":"MD-CS-18","area_name":"C.S. Gregorio Marañón","region_name":"Madrid","region_code":"MD","data_type":"point"}},
{"type":"Feature","geometry":{"type":"Point","coordinates":[-3.8341762944866455,40.340797744910255]},"properties":{"area_code":"MD-CS-19","area_name":"C.S. La Rivota","region_name":"Madrid","region_code":"MD","data_type":"point"}},
{"type":"Feature","geometry":{"type":"Point","coordinates":[-3.808829843733993,40.35122637705148]},"properties":{"area_code":"MD-CS-20","area_name":"C.S. Los Castillos","region_name":"Madrid","region_code":"MD","data_type":"point"}},
{"type":"Feature","geometry":{"type":"Point","coordinates":[-3.833809929159288,40.347571350990584]},"properties":{"area_code":"MD-CS-21","area_name":"C.S. Miguel Servet","region_name":"Madrid","region_code":"MD","data_type":"point"}},
{"type":"Feature","geometry":{"type":"Point","coordinates":[-3.822225553880744,40.34968133436376]},"properties":{"area_code":"MD-CS-22","area_name":"C.S. Ramón y Cajal","region_name":"Madrid","region_code":"MD","data_type":"point"}},
{"type":"Feature","geometry":{"type":"Point","coordinates":[-3.5028542410154686,40.59768191600787]},"properties":{"area_code":"MD-CS-23","area_name":"C.S. Algete","region_name":"Madrid","region_code":"MD","data_type":"point"}},
{"type":"Feature","geometry":{"type":"Point","coordinates":[-3.5988841272790935,40.031813623290276]},"properties":{"area_code":"MD-CS-24","area_name":"C.S. Aranjuez","region_name":"Madrid","region_code":"MD","data_type":"point"}},
{"type":"Feature","geometry":{"type":"Point","coordinates":[-3.612836363983147,40.02581231123539]},"properties":{"area_code":"MD-CS-25","area_name":"C.S. Las Olivas","region_name":"Madrid","region_code":"MD","data_type":"point"}},
{"type":"Feature","geometry":{"type":"Point","coordinates":[-3.4455365335637045,40.310699706433354]},"properties":{"area_code":"MD-CS-26","area_name":"C.S. Arganda - Felicidad","region_name":"Madrid","region_code":"MD","data_type":"point"}},
{"type":"Feature","geometry":{"type":"Point","coordinates":[-3.432629692128748,40.29645996446594]},"properties":{"area_code":"MD-CS-27","area_name":"C.S. Arganda del Rey","region_name":"Madrid","region_code":"MD","data_type":"point"}},
{"type":"Feature","geometry":{"type":"Point","coordinates":[-3.883329647097588,40.40399675066953]},"properties":{"area_code":"MD-CS-28","area_name":"C.S. Condes de Barcelona","region_name":"Madrid","region_code":"MD","data_type":"point"}},
{"type":"Feature","geometry":{"type":"Point","coordinates":[-3.635793653690451,40.993039352287184]},"properties":{"area_code":"MD-CS-29","area_name":"C.S. Buitrago de Lozoya","region_name":"Madrid","region_code":"MD","data_type":"point"}},
{"type":"Feature","geometry":{"type":"Point","coordinates":[-4.437435743365293,40.300443726764286]},"properties":{"area_code":"MD-CS-30","area_name":"C.S. Cadalso de los Vidrios","region_name":"Madrid","region_code":"MD","data_type":"point"}},
{"type":"Feature","geometry":{"type":"Point","coordinates":[-3.3807732551238288,40.33780562760815]},"properties":{"area_code":"MD-CS-31","area_name":"C.S. Campo Real","region_name":"Madrid","region_code":"MD","data_type":"point"}},
{"type":"Feature","geometry":{"type":"Point","coordinates":[-4.0508779335295255,40.74118626486091]},"properties":{"area_code":"MD-CS-32","area_name":"C.S. Cercedilla","region_name":"Madrid","region_code":"MD","data_type":"point"}},
{"type":"Feature","geometry":{"type":"Point","coordinates":[-3.615766536523083,40.15861584721464]},"properties":{"area_code":"MD-CS-33","area_name":"C.S. Ciempozuelos","region_name":"Madrid","region_code":"MD","data_type":"point"}},
{"type":"Feature","geometry":{"type":"Point","coordinates":[-4.0015599445910714,40.626567920698385]},"properties":{"area_code":"MD-CS-34","area_name":"C.S. Collado Villalba Estación","region_name":"Madrid","region_code":"MD","data_type":"point"}},
{"type":"Feature","geometry":{"type":"Point","coordinates":[-3.9944170860708974,40.64400724241205]},"properties":{"area_code":"MD-CS-35","area_name":"C.S. Collado Villalba Pueblo","region_name":"Madrid","region_code":"MD","data_type":"point"}},
{"type":"Feature","geometry":{"type":"Point","coordinates":[-4.011887818779329,40.62695534095988]},"properties":{"area_code":"MD-CS-36","area_name":"C.S. Sierra de Guadarrama","region_name":"Madrid","region_code":"MD","data_type":"point"}},
{"type":"Feature","geometry":{"type":"Point","coordinates":[-3.3916578316972674,40.1143628268338]},"properties":{"area_code":"MD-CS-37","area_name":"C.S. Colmenar de Oreja","region_name":"Madrid","region_code":"MD","data_type":"point"}},
{"type":"Feature","geometry":{"type":"Point","coordinates":[-3.7740820860020423,40.66325238083852]},"properties":{"area_code":"MD-CS-38","area_name":"C.S. Colmenar Viejo Norte","region_name":"Madrid","region_code":"MD","data_type":"point"}},
{"type":"Feature","geometry":{"type":"Point","coordinates":[-3.762082100452555,40.66080978638673]},"properties":{"area_code":"MD-CS-39","area_name":"C.S. Colmenar Viejo Sur","region_name":"Madrid","region_code":"MD","data_type":"point"}},
{"type":"Feature","geometry":{"type":"Point","coordinates":[-3.541429282467836,40.41993222831293]},"properties":{"area_code":"MD-CS-40","area_name":"C.S. Ciudad San Pablo","region_name":"Madrid","region_code":"MD","data_type":"point"}},
{"type":"Feature","geometry":{"type":"Point","coordinates":[-3.5632501891479444,40.42866588043302]},"properties":{"area_code":"MD-CS-41","area_name":"C.S. Dr. Tamames","region_name":"Madrid","region_code":"MD","data_type":"point"}},
{"type":"Feature","geometry":{"type":"Point","coordinates":[-3.5675103301684787,40.41935669592334]},"properties":{"area_code":"MD-CS-42","area_name":"C.S. El Puerto","region_name":"Madrid","region_code":"MD","data_type":"point"}},
{"type":"Feature","geometry":{"type":"Point","coordinates":[-3.5520328926729885,40.420737948199985]},"properties":{"area_code":"MD-CS-43","area_name":"C.S. Jaime Vera - Coslada","region_name":"Madrid","region_code":"MD","data_type":"point"}},
{"type":"Feature","geometry":{"type":"Point","coordinates":[-3.5425666683360477,40.42505306183358]},"properties":{"area_code":"MD-CS-44","area_name":"C.S. Valleaguado","region_name":"Madrid","region_code":"MD","data_type":"point"}},
{"type":"Feature","geometry":{"type":"Point","coordinates":[-3.8390881028656962,40.18697978354312]},"properties":{"area_code":"MD-CS-45","area_name":"C.S. Dr. Aguilar","region_name":"Madrid","region_code":"MD","data_type":"point"}},
{"type":"Feature","geometry":{"type":"Point","coordinates":[-3.5814341592490435,40.73765945747287]},"properties":{"area_code":"MD-CS-46","area_name":"C.S. El Molar","region_name":"Madrid","region_code":"MD","data_type":"point"}},
{"type":"Feature","geometry":{"type":"Point","coordinates":[-3.7931722555387575,40.29001835293502]},"properties":{"area_code":"MD-CS-47","area_name":"C.S. Alicante","region_name":"Madrid","region_code":"MD","data_type":"point"}},
{"type":"Feature","geometry":{"type":"Point","coordinates":[-3.7961027254425366,40.29411543137965]},"properties":{"area_code":"MD-CS-48","area_name":"C.S. Castilla la Nueva","region_name":"Madrid","region_code":"MD","data_type":"point"}},
{"type":"Feature","geometry":{"type":"Point","coordinates":[-3.7891422844555795,40.2894693212897]},"properties":{"area_code":"MD-CS-49","area_name":"C.S. Cuzco","region_name":"Madrid","region_code":"MD","data_type":"point"}},
{"type":"Feature","geometry":{"type":"Point","coordinates":[-3.8088413686697407,40.29481087400473]},"properties":{"area_code":"MD-CS-50","area_name":"C.S. El Naranjo","region_name":"Madrid","region_code":"MD","data_type":"point"}},
{"type":"Feature","geometry":{"type":"Point","coordinates":[-3.8072860377172852,40.28572244368888]},"properties":{"area_code":"MD-CS-51","area_name":"C.S. Francia","region_name":"Madrid","region_code":"MD","data_type":"point"}},
{"type":"Feature","geometry":{"type":"Point","coordinates":[-3.7980805965808195,40.278218565155]},"properties":{"area_code":"MD-CS-52","area_name":"C.S. Panaderas","region_name":"Madrid","region_code":"MD","data_type":"point"}},
{"type":"Feature","geometry":{"type":"Point","coordinates":[-3.836398093733209,40.29684020382079]},"properties":{"area_code":"MD-CS-53","area_name":"C.S. Parque Loranca","region_name":"Madrid","region_code":"MD","data_type":"point"}},
{"type":"Feature","geometry":{"type":"Point","coordinates":[-3.9973456059606116,40.58408358667038]},"properties":{"area_code":"MD-CS-54","area_name":"C.S. Galapagar","region_name":"Madrid","region_code":"MD","data_type":"point"}},
{"type":"Feature","geometry":{"type":"Point","coordinates":[-3.7384530496441335,40.3256065119218]},"properties":{"area_code":"MD-CS-55","area_name":"C.S. El Bercial","region_name":"Madrid","region_code":"MD","data_type":"point"}},
{"type":"Feature","geometry":{"type":"Point","coordinates":[-3.7366273407699993,40.29841939904669]},"properties":{"area_code":"MD-CS-56","area_name":"C.S. El Greco","region_name":"Madrid","region_code":"MD","data_type":"point"}},
{"type":"Feature","geometry":{"type":"Point","coordinates":[-3.716217714629378,40.32228679697162]},"properties":{"area_code":"MD-CS-57","area_name":"C.S. Getafe Norte","region_name":"Madrid","region_code":"MD","data_type":"point"}},
{"type":"Feature","geometry":{"type":"Point","coordinates":[-3.7254447902747647,40.30569742881497]},"properties":{"area_code":"MD-CS-58","area_name":"C.S. Juan de la Cierva","region_name":"Madrid","region_code":"MD","data_type":"point"}},
{"type":"Feature","geometry":{"type":"Point","coordinates":[-3.71381539129118,40.314355539823204]},"properties":{"area_code":"MD-CS-59","area_name":"C.S. Ciudades","region_name":"Madrid","region_code":"MD","data_type":"point"}},
{"type":"Feature","geometry":{"type":"Point","coordinates":[-3.729893393048587,40.3166696762986]},"properties":{"area_code":"MD-CS-60","area_name":"C.S. Las Margaritas","region_name":"Madrid","region_code":"MD","data_type":"point"}},
{"type":"Feature","geometry":{"type":"Point","coordinates":[-3.657560471670517,40.32382709960847]},"properties":{"area_code":"MD-CS-61","area_name":"C.S. Perales del Río","region_name":"Madrid","region_code":"MD","data_type":"point"}},
{"type":"Feature","geometry":{"type":"Point","coordinates":[-3.722878602601485,40.313344285727]},"properties":{"area_code":"MD-CS-62","area_name":"C.S. Sánchez Morate","region_name":"Madrid","region_code":"MD","data_type":"point"}},
{"type":"Feature","geometry":{"type":"Point","coordinates":[-3.748449567375221,40.29601914471478]},"properties":{"area_code":"MD-CS-63","area_name":"C.S. Sector III","region_name":"Madrid","region_code":"MD","data_type":"point"}},
{"type":"Feature","geometry":{"type":"Point","coordinates":[-3.8511323453974007,40.21563545079602]},"properties":{"area_code":"MD-CS-64","area_name":"C.S. Griñón","region_name":"Madrid","region_code":"MD","data_type":"point"}},
{"type":"Feature","geometry":{"type":"Point","coordinates":[-4.088469616803317,40.6724177530251]},"properties":{"area_code":"MD-CS-65","area_name":"C.S. Guadarrama","region_name":"Madrid","region_code":"MD","data_type":"point"}},
{"type":"Feature","geometry":{"type":"Point","coordinates":[-3.828139684356287,40.25452927055069]},"properties":{"area_code":"MD-CS-66","area_name":"C.S. Humanes","region_name":"Madrid","region_code":"MD","data_type":"point"}},
{"type":"Feature","geometry":{"type":"Point","coordinates":[-3.614388156290704,40.864246990719586]},"properties":{"area_code":"MD-CS-67","area_name":"C.S. La Cabrera","region_name":"Madrid","region_code":"MD","data_type":"point"}},
{"type":"Feature","geometry":{"type":"Point","coordinates":[-3.878209399520388,40.489620641851545]},"properties":{"area_code":"MD-CS-68","area_name":"C.S. Las Rozas - El Abajon","region_name":"Madrid","region_code":"MD","data_type":"point"}},
{"type":"Feature","geometry":{"type":"Point","coordinates":[-3.920204816763104,40.515572650716194]},"properties":{"area_code":"MD-CS-69","area_name":"C.S. Monterrozas","region_name":"Madrid","region_code":"MD","data_type":"point"}},
{"type":"Feature","geometry":{"type":"Point","coordinates":[-3.756984909777045,40.327036298244956]},"properties":{"area_code":"MD-CS-70","area_name":"C.S. Dr. Mendiguchía Carriche","region_name":"Madrid","region_code":"MD","data_type":"point"}},
{"type":"Feature","geometry":{"type":"Point","coordinates":[-3.7762315310574666,40.32091765163083]},"properties":{"area_code":"MD-CS-71","area_name":"C.S. Huerta de los Frailes","region_name":"Madrid","region_code":"MD","data_type":"point"}},
{"type":"Feature","geometry":{"type":"Point","coordinates":[-3.74595518196332,40.33024314188084]},"properties":{"area_code":"MD-CS-72","area_name":"C.S. Jaime Vera - Leganés","region_name":"Madrid","region_code":"MD","data_type":"point"}},
{"type":"Feature","geometry":{"type":"Point","coordinates":[-3.748274073431879,40.34514731608458]},"properties":{"area_code":"MD-CS-73","area_name":"C.S. Leganés Norte","region_name":"Madrid","region_code":"MD","data_type":"point"}},
{"type":"Feature","geometry":{"type":"Point","coordinates":[-3.7527564168422365,40.33739739541562]},"properties":{"area_code":"MD-CS-74","area_name":"C.S. M. Angeles López Gómez","region_name":"Madrid","region_code":"MD","data_type":"point"}},
{"type":"Feature","geometry":{"type":"Point","coordinates":[-3.7671121144629987,40.3367355017076]},"properties":{"area_code":"MD-CS-75","area_name":"C.S. Maria Jesús Hereza","region_name":"Madrid","region_code":"MD","data_type":"point"}},
{"type":"Feature","geometry":{"type":"Point","coordinates":[-3.744482387177998,40.33762212059554]},"properties":{"area_code":"MD-CS-76","area_name":"C.S. María Montessori","region_name":"Madrid","region_code":"MD","data_type":"point"}},
{"type":"Feature","geometry":{"type":"Point","coordinates":[-3.77883698064159,40.36018897540245]},"properties":{"area_code":"MD-CS-77","area_name":"C.S. Marie Curie","region_name":"Madrid","region_code":"MD","data_type":"point"}},
{"type":"Feature","geometry":{"type":"Point","coordinates":[-3.76688139495685,40.32675489077199]},"properties":{"area_code":"MD-CS-78","area_name":"C.S. Santa Isabel","region_name":"Madrid","region_code":"MD","data_type":"point"}},
{"type":"Feature","geometry":{"type":"Point","coordinates":[-3.717680680019537,40.47242285627046]},"properties":{"area_code":"MD-CS-79","area_name":"C.S. Dr. Castroviejo","region_name":"Madrid","region_code":"MD","data_type":"point"}},
{"type":"Feature","geometry":{"type":"Point","coordinates":[-3.727383680184166,40.381073803367634]},"properties":{"area_code":"MD-CS-80","area_name":"C.S. Abrantes","region_name":"Madrid","region_code":"MD","data_type":"point"}},
{"type":"Feature","geometry":{"type":"Point","coordinates":[-3.674604225009091,40.400970502034816]},"properties":{"area_code":"MD-CS-81","area_name":"C.S. Adelfas","region_name":"Madrid","region_code":"MD","data_type":"point"}},
{"type":"Feature","geometry":{"type":"Point","coordinates":[-3.693738025683711,40.412082576644146]},"properties":{"area_code":"MD-CS-82","area_name":"C.S. Alameda","region_name":"Madrid","region_code":"MD","data_type":"point"}},
{"type":"Feature","geometry":{"type":"Point","coordinates":[-3.5865538829588925,40.45541494551477]},"properties":{"area_code":"MD-CS-83","area_name":"C.S. Alameda de Osuna","region_name":"Madrid","region_code":"MD","data_type":"point"}},
{"type":"Feature","geometry":{"type":"Point","coordinates":[-3.657183021077753,40.38963829576935]},"properties":{"area_code":"MD-CS-84","area_name":"C.S. Alcalá de Guadaira","region_name":"Madrid","region_code":"MD","data_type":"point"}},
{"type":"Feature","geometry":{"type":"Point","coordinates":[-3.701575992199012,40.382584621715]},"properties":{"area_code":"MD-CS-85","area_name":"C.S. Almendrales","region_name":"Madrid","region_code":"MD","data_type":"point"}},
{"type":"Feature","geometry":{"type":"Point","coordinates":[-3.7145175441435816,40.434415538133955]},"properties":{"area_code":"MD-CS-86","area_name":"C.S. Andrés Mellado","region_name":"Madrid","region_code":"MD","data_type":"point"}},
{"type":"Feature","geometry":{"type":"Point","coordinates":[-3.6640727639074178,40.382148406680784]},"properties":{"area_code":"MD-CS-87","area_name":"C.S. Ángela Uriarte","region_name":"Madrid","region_code":"MD","data_type":"point"}},
{"type":"Feature","geometry":{"type":"Point","coordinates":[-3.6176129844177205,40.41872152725884]},"properties":{"area_code":"MD-CS-88","area_name":"C.S. Aquitania","region_name":"Madrid","region_code":"MD","data_type":"point"}},
{"type":"Feature","geometry":{"type":"Point","coordinates":[-3.71726511093621,40.42780392380315]},"properties":{"area_code":"MD-CS-89","area_name":"C.S. Argüelles","region_name":"Madrid","region_code":"MD","data_type":"point"}},
{"type":"Feature","geometry":{"type":"Point","coordinates":[-3.6544893836429586,40.41200510526865]},"properties":{"area_code":"MD-CS-90","area_name":"C.S. Arroyo Medialegua","region_name":"Madrid","region_code":"MD","data_type":"point"}},
{"type":"Feature","geometry":{"type":"Point","coordinates":[-3.608701933589526,40.405660578634276]},"properties":{"area_code":"MD-CS-91","area_name":"C.S. Vicalvaro - Artilleros","region_name":"Madrid","region_code":"MD","data_type":"point"}},
{"type":"Feature","geometry":{"type":"Point","coordinates":[-3.637164909084518,40.43836325404964]},"properties":{"area_code":"MD-CS-92","area_name":"C.S. Avenida de Aragón","region_name":"Madrid","region_code":"MD","data_type":"point"}},
{"type":"Feature","geometry":{"type":"Point","coordinates":[-3.581929336445968,40.4716545278895]},"properties":{"area_code":"MD-CS-93","area_name":"C.S. Barajas","region_name":"Madrid","region_code":"MD","data_type":"point"}},
{"type":"Feature","geometry":{"type":"Point","coordinates":[-3.701881637413544,40.47777209770818]},"properties":{"area_code":"MD-CS-94","area_name":"C.S. Barrio del Pilar","region_name":"Madrid","region_code":"MD","data_type":"point"}},
{"type":"Feature","geometry":{"type":"Point","coordinates":[-3.6679830822888415,40.43904270593635]},"properties":{"area_code":"MD-CS-95","area_name":"C.S. Baviera","region_name":"Madrid","region_code":"MD","data_type":"point"}},
{"type":"Feature","geometry":{"type":"Point","coordinates":[-3.650343726491655,40.464938501972846]},"properties":{"area_code":"MD-CS-96","area_name":"C.S. Benita de Ávila","region_name":"Madrid","region_code":"MD","data_type":"point"}},
{"type":"Feature","geometry":{"type":"Point","coordinates":[-3.6535858789450573,40.39414521315938]},"properties":{"area_code":"MD-CS-97","area_name":"C.S. Buenos Aires","region_name":"Madrid","region_code":"MD","data_type":"point"}},
{"type":"Feature","geometry":{"type":"Point","coordinates":[-3.6954338534212705,40.46229763978007]},"properties":{"area_code":"MD-CS-98","area_name":"C.S. Bustarviejo","region_name":"Madrid","region_code":"MD","data_type":"point"}},
{"type":"Feature","geometry":{"type":"Point","coordinates":[-3.6950376705251813,40.39864225867375]},"properties":{"area_code":"MD-CS-99","area_name":"C.S. Cáceres","region_name":"Madrid","region_code":"MD","data_type":"point"}},
{"type":"Feature","geometry":{"type":"Point","coordinates":[-3.781582896486127,40.39399052865612]},"properties":{"area_code":"MD-CS-100","area_name":"C.S. Campamento","region_name":"Madrid","region_code":"MD","data_type":"point"}},
{"type":"Feature","geometry":{"type":"Point","coordinates":[-3.6478732100592404,40.38206912683519]},"properties":{"area_code":"MD-CS-101","area_name":"C.S. Campo de la Paloma","region_name":"Madrid","region_code":"MD","data_type":"point"}},
{"type":"Feature","geometry":{"type":"Point","coordinates":[-3.6527322519088403,40.44116830051635]},"properties":{"area_code":"MD-CS-102","area_name":"C.S. Canal de Panamá","region_name":"Madrid","region_code":"MD","data_type":"point"}},
{"type":"Feature","geometry":{"type":"Point","coordinates":[-3.6143568103246975,40.44431555657796]},"properties":{"area_code":"MD-CS-103","area_name":"C.S. Canillejas","region_name":"Madrid","region_code":"MD","data_type":"point"}},
{"type":"Feature","geometry":{"type":"Point","coordinates":[-3.7540743061766446,40.36165039685124]},"properties":{"area_code":"MD-CS-104","area_name":"C.S. Carabanchel Alto","region_name":"Madrid","region_code":"MD","data_type":"point"}},
{"type":"Feature","geometry":{"type":"Point","coordinates":[-3.7280278631196753,40.40916903287143]},"properties":{"area_code":"MD-CS-105","area_name":"C.S. Caramuel","region_name":"Madrid","region_code":"MD","data_type":"point"}},
{"type":"Feature","geometry":{"type":"Point","coordinates":[-3.731596039225206,40.427679618089606]},"properties":{"area_code":"MD-CS-106","area_name":"C.S. Casa de Campo","region_name":"Madrid","region_code":"MD","data_type":"point"}},
{"type":"Feature","geometry":{"type":"Point","coordinates":[-3.6813764117126033,40.428642637769634]},"properties":{"area_code":"MD-CS-107","area_name":"C.S. Castelló","region_name":"Madrid","region_code":"MD","data_type":"point"}},
{"type":"Feature","geometry":{"type":"Point","coordinates":[-3.7071372990445095,40.438947404850225]},"properties":{"area_code":"MD-CS-108","area_name":"C.S. Cea Bermúdez","region_name":"Madrid","region_code":"MD","data_type":"point"}},
{"type":"Feature","geometry":{"type":"Point","coordinates":[-3.748449925209701,40.40575934632662]},"properties":{"area_code":"MD-CS-109","area_name":"C.S. Cebreros","region_name":"Madrid","region_code":"MD","data_type":"point"}},
{"type":"Feature","geometry":{"type":"Point","coordinates":[-3.6037507775882323,40.38043400775773]},"properties":{"area_code":"MD-CS-110","area_name":"C.S. Cerro Almodóvar","region_name":"Madrid","region_code":"MD","data_type":"point"}},
{"type":"Feature","geometry":{"type":"Point","coordinates":[-3.70742990090376,40.484837317255355]},"properties":{"area_code":"MD-CS-111","area_name":"C.S. Ciudad Periodistas","region_name":"Madrid","region_code":"MD","data_type":"point"}},
{"type":"Feature","geometry":{"type":"Point","coordinates":[-3.6704802215593584,40.44731897916497]},"properties":{"area_code":"MD-CS-112","area_name":"C.S. Ciudad Jardín","region_name":"Madrid","region_code":"MD","data_type":"point"}},
{"type":"Feature","geometry":{"type":"Point","coordinates":[-3.709995948533441,40.39235313472764]},"properties":{"area_code":"MD-CS-113","area_name":"C.S. Comillas","region_name":"Madrid","region_code":"MD","data_type":"point"}},
{"type":"Feature","geometry":{"type":"Point","coordinates":[-3.658266845957168,40.43074950982545]},"properties":{"area_code":"MD-CS-114","area_name":"C.S. Daroca","region_name":"Madrid","region_code":"MD","data_type":"point"}},
{"type":"Feature","geometry":{"type":"Point","coordinates":[-3.6951196115484457,40.40431747937834]},"properties":{"area_code":"MD-CS-115","area_name":"C.S. Delicias","region_name":"Madrid","region_code":"MD","data_type":"point"}},
{"type":"Feature","geometry":{"type":"Point","coordinates":[-3.637019034179395,40.43540008668605]},"properties":{"area_code":"MD-CS-116","area_name":"C.S. Doctor Cirajas","region_name":"Madrid","region_code":"MD","data_type":"point"}},
{"type":"Feature","geometry":{"type":"Point","coordinates":[-3.689244056266071,40.358577409305816]},"properties":{"area_code":"MD-CS-117","area_name":"C.S. El Espinillo","region_name":"Madrid","region_code":"MD","data_type":"point"}},
{"type":"Feature","geometry":{"type":"Point","coordinates":[-3.776911893628767,40.5184717514778]},"properties":{"area_code":"MD-CS-118","area_name":"C.S. El Pardo","region_name":"Madrid","region_code":"MD","data_type":"point"}},
{"type":"Feature","geometry":{"type":"Point","coordinates":[-3.7012277395997626,40.43418159871585]},"properties":{"area_code":"MD-CS-119","area_name":"C.S. Eloy Gonzalo","region_name":"Madrid","region_code":"MD","data_type":"point"}},
{"type":"Feature","geometry":{"type":"Point","coordinates":[-3.6993973881400257,40.40203040751836]},"properties":{"area_code":"MD-CS-120","area_name":"C.S. Embajadores","region_name":"Madrid","region_code":"MD","data_type":"point"}},
{"type":"Feature","geometry":{"type":"Point","coordinates":[-3.624088700834294,40.36815470017999]},"properties":{"area_code":"MD-CS-121","area_name":"C.S. Ensanche de Vallecas","region_name":"Madrid","region_code":"MD","data_type":"point"}},
{"type":"Feature","geometry":{"type":"Point","coordinates":[-3.669804493612529,40.3792054073815]},"properties":{"area_code":"MD-CS-122","area_name":"C.S. Entrevías","region_name":"Madrid","region_code":"MD","data_type":"point"}},
{"type":"Feature","geometry":{"type":"Point","coordinates":[-3.6966832253699455,40.44051538414167]},"properties":{"area_code":"MD-CS-123","area_name":"C.S. Espronceda","region_name":"Madrid","region_code":"MD","data_type":"point"}},
{"type":"Feature","geometry":{"type":"Point","coordinates":[-3.6480039862555524,40.43994264734346]},"properties":{"area_code":"MD-CS-124","area_name":"C.S. Estrecho de Corea","region_name":"Madrid","region_code":"MD","data_type":"point"}},
{"type":"Feature","geometry":{"type":"Point","coordinates":[-3.639713551940586,40.387529029277]},"properties":{"area_code":"MD-CS-125","area_name":"C.S. Federica Montseny","region_name":"Madrid","region_code":"MD","data_type":"point"}},
{"type":"Feature","geometry":{"type":"Point","coordinates":[-3.68584854192786,40.491670052487166]},"properties":{"area_code":"MD-CS-126","area_name":"C.S. Fuencarral","region_name":"Madrid","region_code":"MD","data_type":"point"}},
{"type":"Feature","geometry":{"type":"Point","coordinates":[-3.733842748152682,40.48223120420906]},"properties":{"area_code":"MD-CS-127","area_name":"C.S. Fuentelarreina","region_name":"Madrid","region_code":"MD","data_type":"point"}},
{"type":"Feature","geometry":{"type":"Point","coordinates":[-3.631558921916885,40.42518676268547]},"properties":{"area_code":"MD-CS-128","area_name":"C.S. Gandhi","region_name":"Madrid","region_code":"MD","data_type":"point"}},
{"type":"Feature","geometry":{"type":"Point","coordinates":[-3.627805334678955,40.42339638691884]},"properties":{"area_code":"MD-CS-129","area_name":"C.S. García Noblejas","region_name":"Madrid","region_code":"MD","data_type":"point"}},
{"type":"Feature","geometry":{"type":"Point","coordinates":[-3.7773317518592693,40.38191100554165]},"properties":{"area_code":"MD-CS-130","area_name":"C.S. General Fanjul","region_name":"Madrid","region_code":"MD","data_type":"point"}},
{"type":"Feature","geometry":{"type":"Point","coordinates":[-3.7282052827436254,40.390636277815325]},"properties":{"area_code":"MD-CS-131","area_name":"C.S. General Ricardos","region_name":"Madrid","region_code":"MD","data_type":"point"}},
{"type":"Feature","geometry":{"type":"Point","coordinates":[-3.671520846117746,40.42153811798802]},"properties":{"area_code":"MD-CS-132","area_name":"C.S. Goya","region_name":"Madrid","region_code":"MD","data_type":"point"}},
{"type":"Feature","geometry":{"type":"Point","coordinates":[-3.747959828802532,40.37318571998315]},"properties":{"area_code":"MD-CS-133","area_name":"C.S. Guayaba","region_name":"Madrid","region_code":"MD","data_type":"point"}},
{"type":"Feature","geometry":{"type":"Point","coordinates":[-3.7135882287156528,40.431268123079576]},"properties":{"area_code":"MD-CS-134","area_name":"C.S. Guzmán el Bueno","region_name":"Madrid","region_code":"MD","data_type":"point"}},
{"type":"Feature","geometry":{"type":"Point","coordinates":[-3.677997396431735,40.41851832474086]},"properties":{"area_code":"MD-CS-135","area_name":"C.S. Ibiza","region_name":"Madrid","region_code":"MD","data_type":"point"}},
{"type":"Feature","geometry":{"type":"Point","coordinates":[-3.699465766835241,40.453012079083216]},"properties":{"area_code":"MD-CS-136","area_name":"C.S. Infanta Mercedes","region_name":"Madrid","region_code":"MD","data_type":"point"}},
{"type":"Feature","geometry":{"type":"Point","coordinates":[-3.7271967749167767,40.468098197832674]},"properties":{"area_code":"MD-CS-137","area_name":"C.S. Isla de Oza","region_name":"Madrid","region_code":"MD","data_type":"point"}},
{"type":"Feature","geometry":{"type":"Point","coordinates":[-3.6631831062062403,40.48233393575101]},"properties":{"area_code":"MD-CS-138","area_name":"C.S. Jazmín","region_name":"Madrid","region_code":"MD","data_type":"point"}},
{"type":"Feature","geometry":{"type":"Point","coordinates":[-3.7097515371148817,40.38141760407363]},"properties":{"area_code":"MD-CS-139","area_name":"C.S. Joaquín Rodrigo","region_name":"Madrid","region_code":"MD","data_type":"point"}},
{"type":"Feature","geometry":{"type":"Point","coordinates":[-3.6616001479882994,40.371450739619085]},"properties":{"area_code":"MD-CS-140","area_name":"C.S. José María Llanos","region_name":"Madrid","region_code":"MD","data_type":"point"}},
{"type":"Feature","geometry":{"type":"Point","coordinates":[-3.6967312404092296,40.46343396640998]},"properties":{"area_code":"MD-CS-141","area_name":"C.S. José Marvá","region_name":"Madrid","region_code":"MD","data_type":"point"}},
{"type":"Feature","geometry":{"type":"Point","coordinates":[-3.696776894544782,40.424460745192924]},"properties":{"area_code":"MD-CS-142","area_name":"C.S. Justicia","region_name":"Madrid","region_code":"MD","data_type":"point"}},
{"type":"Feature","geometry":{"type":"Point","coordinates":[-3.698878173625688,40.471420967028706]},"properties":{"area_code":"MD-CS-143","area_name":"C.S. La Ventilla","region_name":"Madrid","region_code":"MD","data_type":"point"}},
{"type":"Feature","geometry":{"type":"Point","coordinates":[-3.684205640970013,40.43560792249915]},"properties":{"area_code":"MD-CS-144","area_name":"C.S. Lagasca","region_name":"Madrid","region_code":"MD","data_type":"point"}},
{"type":"Feature","geometry":{"type":"Point","coordinates":[-3.768484106301558,40.37878092890785]},"properties":{"area_code":"MD-CS-145","area_name":"C.S. Las Águilas","region_name":"Madrid","region_code":"MD","data_type":"point"}},
{"type":"Feature","geometry":{"type":"Point","coordinates":[-3.7056464912981513,40.389938298173334]},"properties":{"area_code":"MD-CS-146","area_name":"C.S. Las Calesas","region_name":"Madrid","region_code":"MD","data_type":"point"}},
{"type":"Feature","geometry":{"type":"Point","coordinates":[-3.699004546697152,40.41645628098386]},"properties":{"area_code":"MD-CS-147","area_name":"C.S. Las Cortes","region_name":"Madrid","region_code":"MD","data_type":"point"}},
{"type":"Feature","geometry":{"type":"Point","coordinates":[-3.7036723199629504,40.407871576600186]},"properties":{"area_code":"MD-CS-148","area_name":"C.S. Lavapies","region_name":"Madrid","region_code":"MD","data_type":"point"}},
{"type":"Feature","geometry":{"type":"Point","coordinates":[-3.6916456738852252,40.38959946256064]},"properties":{"area_code":"MD-CS-149","area_name":"C.S. Legazpi","region_name":"Madrid","region_code":"MD","data_type":"point"}},
{"type":"Feature","geometry":{"type":"Point","coordinates":[-3.720449858873777,40.41360390597452]},"properties":{"area_code":"MD-CS-150","area_name":"C.S. Linneo","region_name":"Madrid","region_code":"MD","data_type":"point"}},
{"type":"Feature","geometry":{"type":"Point","coordinates":[-3.6658617594807863,40.43188799871536]},"properties":{"area_code":"MD-CS-151","area_name":"C.S. Londres","region_name":"Madrid","region_code":"MD","data_type":"point"}},
{"type":"Feature","geometry":{"type":"Point","coordinates":[-3.6045877063299385,40.42790754320982]},"properties":{"area_code":"MD-CS-152","area_name":"C.S. Los Alpes","region_name":"Madrid","region_code":"MD","data_type":"point"}},
{"type":"Feature","geometry":{"type":"Point","coordinates":[-3.698496907781628,40.35136863981344]},"properties":{"area_code":"MD-CS-153","area_name":"C.S. Los Ángeles","region_name":"Madrid","region_code":"MD","data_type":"point"}},
{"type":"Feature","geometry":{"type":"Point","coordinates":[-3.737368558182528,40.39680347373301]},"properties":{"area_code":"MD-CS-154","area_name":"C.S. Los Cármenes","region_name":"Madrid","region_code":"MD","data_type":"point"}},
{"type":"Feature","geometry":{"type":"Point","coordinates":[-3.6878929268893827,40.35309888651937]},"properties":{"area_code":"MD-CS-155","area_name":"C.S. Los Rosales","region_name":"Madrid","region_code":"MD","data_type":"point"}},
{"type":"Feature","geometry":{"type":"Point","coordinates":[-3.753697077968108,40.395445933880346]},"properties":{"area_code":"MD-CS-156","area_name":"C.S. Los Yébenes","region_name":"Madrid","region_code":"MD","data_type":"point"}},
{"type":"Feature","geometry":{"type":"Point","coordinates":[-3.7506519650990784,40.40135766486391]},"properties":{"area_code":"MD-CS-157","area_name":"C.S. Lucero","region_name":"Madrid","region_code":"MD","data_type":"point"}},
{"type":"Feature","geometry":{"type":"Point","coordinates":[-3.7659653084356113,40.396653610573416]},"properties":{"area_code":"MD-CS-158","area_name":"C.S. Maqueda","region_name":"Madrid","region_code":"MD","data_type":"point"}},
{"type":"Feature","geometry":{"type":"Point","coordinates":[-3.642347682536213,40.4724967046032]},"properties":{"area_code":"MD-CS-159","area_name":"C.S. Mar Báltico","region_name":"Madrid","region_code":"MD","data_type":"point"}},
{"type":"Feature","geometry":{"type":"Point","coordinates":[-3.7138198659079413,40.45762701743788]},"properties":{"area_code":"MD-CS-160","area_name":"C.S. María Auxiliadora","region_name":"Madrid","region_code":"MD","data_type":"point"}},
{"type":"Feature","geometry":{"type":"Point","coordinates":[-3.7018593338405124,40.40306955009023]},"properties":{"area_code":"MD-CS-161","area_name":"C.S. Martín de Vargas","region_name":"Madrid","region_code":"MD","data_type":"point"}},
{"type":"Feature","geometry":{"type":"Point","coordinates":[-3.6655236974071763,40.391914938832635]},"properties":{"area_code":"MD-CS-162","area_name":"C.S. Martínez de la Riva","region_name":"Madrid","region_code":"MD","data_type":"point"}},
{"type":"Feature","geometry":{"type":"Point","coordinates":[-3.718786015057983,40.49089331917829]},"properties":{"area_code":"MD-CS-163","area_name":"C.S. Mirasierra","region_name":"Madrid","region_code":"MD","data_type":"point"}},
{"type":"Feature","geometry":{"type":"Point","coordinates":[-3.656835412314829,40.477478320265455]},"properties":{"area_code":"MD-CS-164","area_name":"C.S. Monóvar","region_name":"Madrid","region_code":"MD","data_type":"point"}},
{"type":"Feature","geometry":{"type":"Point","coordinates":[-3.6719652730682064,40.43066169103566]},"properties":{"area_code":"MD-CS-165","area_name":"C.S. Montesa","region_name":"Madrid","region_code":"MD","data_type":"point"}},
{"type":"Feature","geometry":{"type":"Point","coordinates":[-3.7487691854193703,40.37926161832709]},"properties":{"area_code":"MD-CS-166","area_name":"C.S. Nuestra Señora de Fátima","region_name":"Madrid","region_code":"MD","data_type":"point"}},
{"type":"Feature","geometry":{"type":"Point","coordinates":[-3.6581865452369224,40.40194801220059]},"properties":{"area_code":"MD-CS-167","area_name":"C.S. Numancia","region_name":"Madrid","region_code":"MD","data_type":"point"}},
{"type":"Feature","geometry":{"type":"Point","coordinates":[-3.6852751891097486,40.46815691148765]},"properties":{"area_code":"MD-CS-168","area_name":"C.S. Nuñez Morgado","region_name":"Madrid","region_code":"MD","data_type":"point"}},
{"type":"Feature","geometry":{"type":"Point","coordinates":[-3.714490881594449,40.372783141325826]},"properties":{"area_code":"MD-CS-169","area_name":"C.S. Orcasitas","region_name":"Madrid","region_code":"MD","data_type":"point"}},
{"type":"Feature","geometry":{"type":"Point","coordinates":[-3.700560627329258,40.36531130565111]},"properties":{"area_code":"MD-CS-170","area_name":"C.S. Orcasur","region_name":"Madrid","region_code":"MD","data_type":"point"}},
{"type":"Feature","geometry":{"type":"Point","coordinates":[-3.677042753377759,40.407947287199406]},"properties":{"area_code":"MD-CS-171","area_name":"C.S. Pacífico","region_name":"Madrid","region_code":"MD","data_type":"point"}},
{"type":"Feature","geometry":{"type":"Point","coordinates":[-3.707361946675681,40.426630704658265]},"properties":{"area_code":"MD-CS-172","area_name":"C.S. Palma Norte","region_name":"Madrid","region_code":"MD","data_type":"point"}},
{"type":"Feature","geometry":{"type":"Point","coordinates":[-3.69889930107432,40.39716852124839]},"properties":{"area_code":"MD-CS-173","area_name":"C.S. Párroco Julio Morate","region_name":"Madrid","region_code":"MD","data_type":"point"}},
{"type":"Feature","geometry":{"type":"Point","coordinates":[-3.743301425753502,40.405900667595546]},"properties":{"area_code":"MD-CS-174","area_name":"C.S. Pascual Rodríguez","region_name":"Madrid","region_code":"MD","data_type":"point"}},
{"type":"Feature","geometry":{"type":"Point","coordinates":[-3.714418558006612,40.401659290749265]},"properties":{"area_code":"MD-CS-175","area_name":"C.S. Paseo Imperial","region_name":"Madrid","region_code":"MD","data_type":"point"}},
{"type":"Feature","geometry":{"type":"Point","coordinates":[-3.628972113381163,40.39931780232006]},"properties":{"area_code":"MD-CS-176","area_name":"C.S. Pavones","region_name":"Madrid","region_code":"MD","data_type":"point"}},
{"type":"Feature","geometry":{"type":"Point","coordinates":[-3.6679100794851003,40.39851384898142]},"properties":{"area_code":"MD-CS-177","area_name":"C.S. Peña Prieta","region_name":"Madrid","region_code":"MD","data_type":"point"}},
{"type":"Feature","geometry":{"type":"Point","coordinates":[-3.7100290424342193,40.35061372395707]},"properties":{"area_code":"MD-CS-178","area_name":"C.S. Potes","region_name":"Madrid","region_code":"MD","data_type":"point"}},
{"type":"Feature","geometry":{"type":"Point","coordinates":[-3.6794352516844384,40.457149559784156]},"properties":{"area_code":"MD-CS-179","area_name":"C.S. Potosí","region_name":"Madrid","region_code":"MD","data_type":"point"}},
{"type":"Feature","geometry":{"type":"Point","coordinates":[-3.679227439164521,40.440024670306805]},"properties":{"area_code":"MD-CS-180","area_name":"C.S. Principe de Vergara","region_name":"Madrid","region_code":"MD","data_type":"point"}},
{"type":"Feature","geometry":{"type":"Point","coordinates":[-3.66952838235345,40.44409026206974]},"properties":{"area_code":"MD-CS-181","area_name":"C.S. Prosperidad","region_name":"Madrid","region_code":"MD","data_type":"point"}},
{"type":"Feature","geometry":{"type":"Point","coordinates":[-3.732860659582181,40.384237448125766]},"properties":{"area_code":"MD-CS-182","area_name":"C.S. Puerta Bonita","region_name":"Madrid","region_code":"MD","data_type":"point"}},
{"type":"Feature","geometry":{"type":"Point","coordinates":[-3.7352958169217994,40.41098791222802]},"properties":{"area_code":"MD-CS-183","area_name":"C.S. Puerta del Ángel","region_name":"Madrid","region_code":"MD","data_type":"point"}},
{"type":"Feature","geometry":{"type":"Point","coordinates":[-3.7178656265975953,40.397791070474426]},"properties":{"area_code":"MD-CS-184","area_name":"C.S. Quince de Mayo","region_name":"Madrid","region_code":"MD","data_type":"point"}},
{"type":"Feature","geometry":{"type":"Point","coordinates":[-3.6391252253796993,40.38885662103352]},"properties":{"area_code":"MD-CS-185","area_name":"C.S. Rafael Alberti","region_name":"Madrid","region_code":"MD","data_type":"point"}},
{"type":"Feature","geometry":{"type":"Point","coordinates":[-3.7075266725224085,40.44684591634013]},"properties":{"area_code":"MD-CS-186","area_name":"C.S. Reina Victoria","region_name":"Madrid","region_code":"MD","data_type":"point"}},
{"type":"Feature","geometry":{"type":"Point","coordinates":[-3.592685252638899,40.44317644296192]},"properties":{"area_code":"MD-CS-187","area_name":"C.S. Rejas","region_name":"Madrid","region_code":"MD","data_type":"point"}},
{"type":"Feature","geometry":{"type":"Point","coordinates":[-3.712511830022911,40.34260734146971]},"properties":{"area_code":"MD-CS-188","area_name":"C.S. San Andrés","region_name":"Madrid","region_code":"MD","data_type":"point"}},
{"type":"Feature","geometry":{"type":"Point","coordinates":[-3.6849878784149923,40.343109891024945]},"properties":{"area_code":"MD-CS-189","area_name":"C.S. San Cristóbal","region_name":"Madrid","region_code":"MD","data_type":"point"}},
{"type":"Feature","geometry":{"type":"Point","coordinates":[-3.69303825986965,40.371428775747376]},"properties":{"area_code":"MD-CS-190","area_name":"C.S. San Fermín","region_name":"Madrid","region_code":"MD","data_type":"point"}},
{"type":"Feature","geometry":{"type":"Point","coordinates":[-3.6573354362073656,40.493664561261944]},"properties":{"area_code":"MD-CS-191","area_name":"C.S. Sanchinarro","region_name":"Madrid","region_code":"MD","data_type":"point"}},
{"type":"Feature","geometry":{"type":"Point","coordinates":[-3.669927683686116,40.445114975832766]},"properties":{"area_code":"MD-CS-192","area_name":"C.S. Santa Hortensia","region_name":"Madrid","region_code":"MD","data_type":"point"}},
{"type":"Feature","geometry":{"type":"Point","coordinates":[-3.709890402009169,40.413714268018914]},"properties":{"area_code":"MD-CS-193","area_name":"C.S. Segovia","region_name":"Madrid","region_code":"MD","data_type":"point"}},
{"type":"Feature","geometry":{"type":"Point","coordinates":[-3.68536666573165,40.451249690405824]},"properties":{"area_code":"MD-CS-194","area_name":"C.S. Segre","region_name":"Madrid","region_code":"MD","data_type":"point"}},
{"type":"Feature","geometry":{"type":"Point","coordinates":[-3.635004741887885,40.46315892744847]},"properties":{"area_code":"MD-CS-195","area_name":"C.S. Silvano","region_name":"Madrid","region_code":"MD","data_type":"point"}},
{"type":"Feature","geometry":{"type":"Point","coordinates":[-3.646231342318124,40.406267732662975]},"properties":{"area_code":"MD-CS-196","area_name":"C.S. Torito","region_name":"Madrid","region_code":"MD","data_type":"point"}},
{"type":"Feature","geometry":{"type":"Point","coordinates":[-3.622096934100187,40.40003968710298]},"properties":{"area_code":"MD-CS-197","area_name":"C.S. Valdebernardo","region_name":"Madrid","region_code":"MD","data_type":"point"}},
{"type":"Feature","geometry":{"type":"Point","coordinates":[-3.711403584504423,40.463623049450256]},"properties":{"area_code":"MD-CS-198","area_name":"C.S. Valdezarza","region_name":"Madrid","region_code":"MD","data_type":"point"}},
{"type":"Feature","geometry":{"type":"Point","coordinates":[-3.77456893770928,40.376235807857526]},"properties":{"area_code":"MD-CS-199","area_name":"C.S. Valle Inclán","region_name":"Madrid","region_code":"MD","data_type":"point"}},
{"type":"Feature","geometry":{"type":"Point","coordinates":[-3.7135128407863647,40.425250561878556]},"properties":{"area_code":"MD-CS-200","area_name":"C.S. Ventura Rodríguez","region_name":"Madrid","region_code":"MD","data_type":"point"}},
{"type":"Feature","geometry":{"type":"Point","coordinates":[-3.661165703414529,40.45829153695572]},"properties":{"area_code":"MD-CS-201","area_name":"C.S. Vicente Muzas","region_name":"Madrid","region_code":"MD","data_type":"point"}},
{"type":"Feature","geometry":{"type":"Point","coordinates":[-3.667108580472625,40.3889418141903]},"properties":{"area_code":"MD-CS-202","area_name":"C.S. Vicente Soldevilla","region_name":"Madrid","region_code":"MD","data_type":"point"}},
{"type":"Feature","geometry":{"type":"Point","coordinates":[-3.6221667842111174,40.3717777202998]},"properties":{"area_code":"MD-CS-203","area_name":"C.S. Villa de Vallecas","region_name":"Madrid","region_code":"MD","data_type":"point"}},
{"type":"Feature","geometry":{"type":"Point","coordinates":[-3.7063097745082905,40.45788936701394]},"properties":{"area_code":"MD-CS-204","area_name":"C.S. Villaamil","region_name":"Madrid","region_code":"MD","data_type":"point"}},
{"type":"Feature","geometry":{"type":"Point","coordinates":[-3.5992624585224733,40.405700877893025]},"properties":{"area_code":"MD-CS-205","area_name":"C.S. Villablanca","region_name":"Madrid","region_code":"MD","data_type":"point"}},
{"type":"Feature","geometry":{"type":"Point","coordinates":[-3.685286763734124,40.484104456160246]},"properties":{"area_code":"MD-CS-206","area_name":"C.S. Virgen de Begoña","region_name":"Madrid","region_code":"MD","data_type":"point"}},
{"type":"Feature","geometry":{"type":"Point","coordinates":[-3.6633671585000527,40.48784635647911]},"properties":{"area_code":"MD-CS-207","area_name":"C.S. Virgen del Cortijo","region_name":"Madrid","region_code":"MD","data_type":"point"}},
{"type":"Feature","geometry":{"type":"Point","coordinates":[-3.7816918932262897,40.45635912600398]},"properties":{"area_code":"MD-CS-208","area_name":"C.S. Aravaca","region_name":"Madrid","region_code":"MD","data_type":"point"}},
{"type":"Feature","geometry":{"type":"Point","coordinates":[-3.8683715290437863,40.47703750123116]},"properties":{"area_code":"MD-CS-209","area_name":"C.S. Cerro del Aire","region_name":"Madrid","region_code":"MD","data_type":"point"}},
{"type":"Feature","geometry":{"type":"Point","coordinates":[-3.8649915316356696,40.44899106587233]},"properties":{"area_code":"MD-CS-210","area_name":"C.S. Valle de la Oliva","region_name":"Madrid","region_code":"MD","data_type":"point"}},
{"type":"Feature","geometry":{"type":"Point","coordinates":[-3.8619862505708857,40.72981543153591]},"properties":{"area_code":"MD-CS-211","area_name":"C.S. Manzanares el Real","region_name":"Madrid","region_code":"MD","data_type":"point"}},
{"type":"Feature","geometry":{"type":"Point","coordinates":[-3.329714965383015,40.55070297271706]},"properties":{"area_code":"MD-CS-212","area_name":"C.S. Meco","region_name":"Madrid","region_code":"MD","data_type":"point"}},
{"type":"Feature","geometry":{"type":"Point","coordinates":[-3.482481697847678,40.39712091103715]},"properties":{"area_code":"MD-CS-213","area_name":"C.S. Mejorada del Campo","region_name":"Madrid","region_code":"MD","data_type":"point"}},
{"type":"Feature","geometry":{"type":"Point","coordinates":[-3.862275265409374,40.3230380316095]},"properties":{"area_code":"MD-CS-214","area_name":"C.S. Bartolomé González","region_name":"Madrid","region_code":"MD","data_type":"point"}},
{"type":"Feature","geometry":{"type":"Point","coordinates":[-3.8544580860402173,40.325717696861005]},"properties":{"area_code":"MD-CS-215","area_name":"C.S. Barcelona","region_name":"Madrid","region_code":"MD","data_type":"point"}},
{"type":"Feature","geometry":{"type":"Point","coordinates":[-3.857048847250051,40.31650020270213]},"properties":{"area_code":"MD-CS-216","area_name":"C.S. Dr. Luengo Rodríguez","region_name":"Madrid","region_code":"MD","data_type":"point"}},
{"type":"Feature","geometry":{"type":"Point","coordinates":[-3.871778502756288,40.31880458241162]},"properties":{"area_code":"MD-CS-217","area_name":"C.S. Dos de Mayo","region_name":"Madrid","region_code":"MD","data_type":"point"}},
{"type":"Feature","geometry":{"type":"Point","coordinates":[-3.882513570532294,40.32882240616978]},"properties":{"area_code":"MD-CS-218","area_name":"C.S. El Soto","region_name":"Madrid","region_code":"MD","data_type":"point"}},
{"type":"Feature","geometry":{"type":"Point","coordinates":[-3.853685839355982,40.32048008287336]},"properties":{"area_code":"MD-CS-219","area_name":"C.S. Felipe II","region_name":"Madrid","region_code":"MD","data_type":"point"}},
{"type":"Feature","geometry":{"type":"Point","coordinates":[-3.8588416023385443,40.329802403264786]},"properties":{"area_code":"MD-CS-220","area_name":"C.S. La Princesa","region_name":"Madrid","region_code":"MD","data_type":"point"}},
{"type":"Feature","geometry":{"type":"Point","coordinates":[-3.9319755116577295,40.30898378822887]},"properties":{"area_code":"MD-CS-221","area_name":"C.S. Parque Coimbra","region_name":"Madrid","region_code":"MD","data_type":"point"}},
{"type":"Feature","geometry":{"type":"Point","coordinates":[-3.869848619639123,40.33350398092724]},"properties":{"area_code":"MD-CS-222","area_name":"C.S. Presentación Sabio","region_name":"Madrid","region_code":"MD","data_type":"point"}},
{"type":"Feature","geometry":{"type":"Point","coordinates":[-4.014563946159383,40.29011757905757]},"properties":{"area_code":"MD-CS-223","area_name":"C.S. Navalcarnero","region_name":"Madrid","region_code":"MD","data_type":"point"}},
{"type":"Feature","geometry":{"type":"Point","coordinates":[-4.252692998226252,40.383044560019925]},"properties":{"area_code":"MD-CS-224","area_name":"C.S. Navas del Rey","region_name":"Madrid","region_code":"MD","data_type":"point"}},
{"type":"Feature","geometry":{"type":"Point","coordinates":[-3.5323995549648717,40.50652379153583]},"properties":{"area_code":"MD-CS-225","area_name":"C.S. Paracuellos de Jarama","region_name":"Madrid","region_code":"MD","data_type":"point"}},
{"type":"Feature","geometry":{"type":"Point","coordinates":[-3.764841635825459,40.234603958117205]},"properties":{"area_code":"MD-CS-226","area_name":"C.S. Isabel II","region_name":"Madrid","region_code":"MD","data_type":"point"}},
{"type":"Feature","geometry":{"type":"Point","coordinates":[-3.762649206127688,40.228834450984415]},"properties":{"area_code":"MD-CS-227","area_name":"C.S. Las Américas","region_name":"Madrid","region_code":"MD","data_type":"point"}},
{"type":"Feature","geometry":{"type":"Point","coordinates":[-3.7640542211408374,40.244032881924014]},"properties":{"area_code":"MD-CS-228","area_name":"C.S. Los Pintores","region_name":"Madrid","region_code":"MD","data_type":"point"}},
{"type":"Feature","geometry":{"type":"Point","coordinates":[-3.774214774685196,40.241163465967325]},"properties":{"area_code":"MD-CS-229","area_name":"C.S. San Blas","region_name":"Madrid","region_code":"MD","data_type":"point"}},
{"type":"Feature","geometry":{"type":"Point","coordinates":[-3.351696124516163,40.23168669598684]},"properties":{"area_code":"MD-CS-230","area_name":"C.S. Perales de Tajuña","region_name":"Madrid","region_code":"MD","data_type":"point"}},
{"type":"Feature","geometry":{"type":"Point","coordinates":[-3.6948943598180275,40.25158899036523]},"properties":{"area_code":"MD-CS-231","area_name":"C.S. Parque Europa","region_name":"Madrid","region_code":"MD","data_type":"point"}},
{"type":"Feature","geometry":{"type":"Point","coordinates":[-3.6975955191824594,40.24205609287009]},"properties":{"area_code":"MD-CS-232","area_name":"C.S. Pinto","region_name":"Madrid","region_code":"MD","data_type":"point"}},
{"type":"Feature","geometry":{"type":"Point","coordinates":[-3.814592094503453,40.43058252806833]},"properties":{"area_code":"MD-CS-233","area_name":"C.S. San Juan de la Cruz","region_name":"Madrid","region_code":"MD","data_type":"point"}},
{"type":"Feature","geometry":{"type":"Point","coordinates":[-3.802347669695656,40.43891137602483]},"properties":{"area_code":"MD-CS-234","area_name":"C.S. Pozuelo - Estación","region_name":"Madrid","region_code":"MD","data_type":"point"}},
{"type":"Feature","geometry":{"type":"Point","coordinates":[-3.7817563773812193,40.41102544803709]},"properties":{"area_code":"MD-CS-235","area_name":"C.S. Somosaguas","region_name":"Madrid","region_code":"MD","data_type":"point"}},
{"type":"Feature","geometry":{"type":"Point","coordinates":[-3.878003713924888,40.902123935956]},"properties":{"area_code":"MD-CS-236","area_name":"C.S. Rascafría","region_name":"Madrid","region_code":"MD","data_type":"point"}},
{"type":"Feature","geometry":{"type":"Point","coordinates":[-3.5492168588210835,40.364327222859195]},"properties":{"area_code":"MD-CS-237","area_name":"C.S. La Paz","region_name":"Madrid","region_code":"MD","data_type":"point"}},
{"type":"Feature","geometry":{"type":"Point","coordinates":[-3.5339330133659757,40.36033565663019]},"properties":{"area_code":"MD-CS-238","area_name":"C.S. Santa Mónica","region_name":"Madrid","region_code":"MD","data_type":"point"}},
{"type":"Feature","geometry":{"type":"Point","coordinates":[-3.5214404856734465,40.33932915540371]},"properties":{"area_code":"MD-CS-239","area_name":"C.S. Primero de mayo","region_name":"Madrid","region_code":"MD","data_type":"point"}},
{"type":"Feature","geometry":{"type":"Point","coordinates":[-4.239788135120388,40.4982887827899]},"properties":{"area_code":"MD-CS-240","area_name":"C.S. Robledo de Chavela","region_name":"Madrid","region_code":"MD","data_type":"point"}},
{"type":"Feature","geometry":{"type":"Point","coordinates":[-3.533988724832744,40.42705697762878]},"properties":{"area_code":"MD-CS-241","area_name":"C.S. Los Alperchines","region_name":"Madrid","region_code":"MD","data_type":"point"}},
{"type":"Feature","geometry":{"type":"Point","coordinates":[-3.529941501513383,40.42208457090957]},"properties":{"area_code":"MD-CS-242","area_name":"C.S. San Fernando","region_name":"Madrid","region_code":"MD","data_type":"point"}},
{"type":"Feature","geometry":{"type":"Point","coordinates":[-4.1497066264182045,40.59191934025383]},"properties":{"area_code":"MD-CS-243","area_name":"C.S. San Carlos","region_name":"Madrid","region_code":"MD","data_type":"point"}},
{"type":"Feature","geometry":{"type":"Point","coordinates":[-3.5784877011645935,40.21010783356313]},"properties":{"area_code":"MD-CS-244","area_name":"C.S. San Martín de la Vega","region_name":"Madrid","region_code":"MD","data_type":"point"}},
{"type":"Feature","geometry":{"type":"Point","coordinates":[-4.400969884236026,40.364514610827094]},"properties":{"area_code":"MD-CS-245","area_name":"C.S. San Martín de Valdeiglesias","region_name":"Madrid","region_code":"MD","data_type":"point"}},
{"type":"Feature","geometry":{"type":"Point","coordinates":[-3.630401401810668,40.544750972499635]},"properties":{"area_code":"MD-CS-246","area_name":"C.S. Reyes Católicos","region_name":"Madrid","region_code":"MD","data_type":"point"}},
{"type":"Feature","geometry":{"type":"Point","coordinates":[-3.6322961370076006,40.55911875110191]},"properties":{"area_code":"MD-CS-247","area_name":"C.S. Rosa Luxemburgo","region_name":"Madrid","region_code":"MD","data_type":"point"}},
{"type":"Feature","geometry":{"type":"Point","coordinates":[-3.6226927432111355,40.55016205898069]},"properties":{"area_code":"MD-CS-248","area_name":"C.S. V Centenario","region_name":"Madrid","region_code":"MD","data_type":"point"}},
{"type":"Feature","geometry":{"type":"Point","coordinates":[-3.787751397609985,40.75111058929956]},"properties":{"area_code":"MD-CS-249","area_name":"C.S. Soto del Real","region_name":"Madrid","region_code":"MD","data_type":"point"}},
{"type":"Feature","geometry":{"type":"Point","coordinates":[-3.461246347214994,40.45043329506225]},"properties":{"area_code":"MD-CS-250","area_name":"C.S. Brújula","region_name":"Madrid","region_code":"MD","data_type":"point"}},
{"type":"Feature","geometry":{"type":"Point","coordinates":[-3.4839457493449233,40.4587960173125]},"properties":{"area_code":"MD-CS-251","area_name":"C.S. Fronteras","region_name":"Madrid","region_code":"MD","data_type":"point"}},
{"type":"Feature","geometry":{"type":"Point","coordinates":[-3.4592989144958746,40.4640537124542]},"properties":{"area_code":"MD-CS-252","area_name":"C.S. Juncal","region_name":"Madrid","region_code":"MD","data_type":"point"}},
{"type":"Feature","geometry":{"type":"Point","coordinates":[-3.452579719007551,40.45763875365466]},"properties":{"area_code":"MD-CS-253","area_name":"C.S. La Plata","region_name":"Madrid","region_code":"MD","data_type":"point"}},
{"type":"Feature","geometry":{"type":"Point","coordinates":[-3.4725967062743592,40.46469380358545]},"properties":{"area_code":"MD-CS-254","area_name":"C.S. La Veredilla","region_name":"Madrid","region_code":"MD","data_type":"point"}},
{"type":"Feature","geometry":{"type":"Point","coordinates":[-3.4704939252981957,40.44394554250569]},"properties":{"area_code":"MD-CS-255","area_name":"C.S. Los Fresnos","region_name":"Madrid","region_code":"MD","data_type":"point"}},
{"type":"Feature","geometry":{"type":"Point","coordinates":[-3.5386287826656093,40.823835489462674]},"properties":{"area_code":"MD-CS-256","area_name":"C.S. Torrelaguna","region_name":"Madrid","region_code":"MD","data_type":"point"}},
{"type":"Feature","geometry":{"type":"Point","coordinates":[-3.929526533569101,40.58108181575231]},"properties":{"area_code":"MD-CS-257","area_name":"C.S. Torrelodones","region_name":"Madrid","region_code":"MD","data_type":"point"}},
{"type":"Feature","geometry":{"type":"Point","coordinates":[-3.3640660926279082,40.40655734355588]},"properties":{"area_code":"MD-CS-258","area_name":"C.S. Torres de la Alameda","region_name":"Madrid","region_code":"MD","data_type":"point"}},
{"type":"Feature","geometry":{"type":"Point","coordinates":[-3.7126107792431378,40.606397820222675]},"properties":{"area_code":"MD-CS-259","area_name":"C.S. Tres Cantos","region_name":"Madrid","region_code":"MD","data_type":"point"}},
{"type":"Feature","geometry":{"type":"Point","coordinates":[-3.7035045871639776,40.59919258825161]},"properties":{"area_code":"MD-CS-260","area_name":"C.S. Sector Embarcaciones","region_name":"Madrid","region_code":"MD","data_type":"point"}},
{"type":"Feature","geometry":{"type":"Point","coordinates":[-3.678122993552119,40.18510652391983]},"properties":{"area_code":"MD-CS-261","area_name":"C.S. El Restón","region_name":"Madrid","region_code":"MD","data_type":"point"}},
{"type":"Feature","geometry":{"type":"Point","coordinates":[-3.685276954741724,40.192127767194]},"properties":{"area_code":"MD-CS-262","area_name":"C.S. Valdemoro","region_name":"Madrid","region_code":"MD","data_type":"point"}},
{"type":"Feature","geometry":{"type":"Point","coordinates":[-4.300194000364268,40.274539392828686]},"properties":{"area_code":"MD-CS-263","area_name":"C.S. Villa del Prado","region_name":"Madrid","region_code":"MD","data_type":"point"}},
{"type":"Feature","geometry":{"type":"Point","coordinates":[-4.001834375382493,40.44680498202998]},"properties":{"area_code":"MD-CS-264","area_name":"C.S. Villanueva de la Cañada","region_name":"Madrid","region_code":"MD","data_type":"point"}},
{"type":"Feature","geometry":{"type":"Point","coordinates":[-3.275263957280361,40.17026892270926]},"properties":{"area_code":"MD-CS-265","area_name":"C.S. Villarejo de Salvanés","region_name":"Madrid","region_code":"MD","data_type":"point"}},
{"type":"Feature","geometry":{"type":"Point","coordinates":[-3.9082638847497746,40.359109803266]},"properties":{"area_code":"MD-CS-266","area_name":"C.S. Villaviciosa de Odón","region_name":"Madrid","region_code":"MD","data_type":"point"}},
{"type":"Feature","geometry":{"type":"Point","coordinates":[-3.9183351630143015,40.28179984774124]},"properties":{"area_code":"MD-CS-267","area_name":"C.S. Arroyomolinos","region_name":"Madrid","region_code":"MD","data_type":"point"}},
{"type":"Feature","geometry":{"type":"Point","coordinates":[-2.4398416,42.4045083]},"properties":{"data_type":"point","region_name":"La Rioja","region_code":"RI","area_code":"RI-CS-0000","area_name":"Alberite"}},
{"type":"Feature","geometry":{"type":"Point","coordinates":[-1.7547643,42.179446]},"properties":{"data_type":"point","region_name":"La Rioja","region_code":"RI","area_code":"RI-CS-0000","area_name":"Alfaro"}},
{"type":"Feature","geometry":{"type":"Point","coordinates":[-2.0947339,42.2277348]},"properties":{"data_type":"point","region_name":"La Rioja","region_code":"RI","area_code":"RI-CS-0000","area_name":"Arnedo"}},
{"type":"Feature","geometry":{"type":"Point","coordinates":[-1.9701792,42.3029525]},"properties":{"data_type":"point","region_name":"La Rioja","region_code":"RI","area_code":"RI-CS-0000","area_name":"Calahorra"}},
{"type":"Feature","geometry":{"type":"Point","coordinates":[-1.9517576,42.0072592]},"properties":{"data_type":"point","region_name":"La Rioja","region_code":"RI","area_code":"RI-CS-0000","area_name":"Cervera del Río Alhama"}},
{"type":"Feature","geometry":{"type":"Point","coordinates":[-2.8463262,42.5698412]},"properties":{"data_type":"point","region_name":"La Rioja","region_code":"RI","area_code":"RI-CS-0000","area_name":"Haro"}},
{"type":"Feature","geometry":{"type":"Point","coordinates":[-2.4354133,42.4550244]},"properties":{"data_type":"point","region_name":"La Rioja","region_code":"RI","area_code":"RI-CS-0000","area_name":"Cascajos"}},
{"type":"Feature","geometry":{"type":"Point","coordinates":[-2.443571,42.4602586]},"properties":{"data_type":"point","region_name":"La Rioja","region_code":"RI","area_code":"RI-CS-0000","area_name":"Espartero"}},
{"type":"Feature","geometry":{"type":"Point","coordinates":[-2.4606378,42.4668631]},"properties":{"data_type":"point","region_name":"La Rioja","region_code":"RI","area_code":"RI-CS-0000","area_name":"Gonzalo de Berceo"}},
{"type":"Feature","geometry":{"type":"Point","coordinates":[-2.4323485,42.4665453]},"properties":{"data_type":"point","region_name":"La Rioja","region_code":"RI","area_code":"RI-CS-0000","area_name":"Joaquín Elizalde"}},
{"type":"Feature","geometry":{"type":"Point","coordinates":[-2.4560168,42.4610591]},"properties":{"data_type":"point","region_name":"La Rioja","region_code":"RI","area_code":"RI-CS-0000","area_name":"Labradores"}},
{"type":"Feature","geometry":{"type":"Point","coordinates":[-2.4605492,42.4589371]},"properties":{"data_type":"point","region_name":"La Rioja","region_code":"RI","area_code":"RI-CS-0000","area_name":"Siete infantes"}},
{"type":"Feature","geometry":{"type":"Point","coordinates":[-2.4426215,42.4679523]},"properties":{"data_type":"point","region_name":"La Rioja","region_code":"RI","area_code":"RI-CS-0000","area_name":"Rodríguez Paterna"}},
{"type":"Feature","geometry":{"type":"Point","coordinates":[-2.4554765,42.4504614]},"properties":{"data_type":"point","region_name":"La Rioja","region_code":"RI","area_code":"RI-CS-0000","area_name":"Guindalera"}},
{"type":"Feature","geometry":{"type":"Point","coordinates":[-2.3239783,42.4032224]},"properties":{"data_type":"point","region_name":"La Rioja","region_code":"RI","area_code":"RI-CS-0000","area_name":"Murillo Río Leza"}},
{"type":"Feature","geometry":{"type":"Point","coordinates":[-2.7313656,42.41899]},"properties":{"data_type":"point","region_name":"La Rioja","region_code":"RI","area_code":"RI-CS-0000","area_name":"Nájera"}},
{"type":"Feature","geometry":{"type":"Point","coordinates":[-2.5612979,42.4273121]},"properties":{"data_type":"point","region_name":"La Rioja","region_code":"RI","area_code":"RI-CS-0000","area_name":"Navarrete"}},
{"type":"Feature","geometry":{"type":"Point","coordinates":[-2.4731532,42.2316027]},"properties":{"data_type":"point","region_name":"La Rioja","region_code":"RI","area_code":"RI-CS-0000","area_name":"San Román"}},
{"type":"Feature","geometry":{"type":"Point","coordinates":[-2.9528149,42.43828]},"properties":{"data_type":"point","region_name":"La Rioja","region_code":"RI","area_code":"RI-CS-0000","area_name":"Santo Domingo de la Calzada"}},
{"type":"Feature","geometry":{"type":"Point","coordinates":[-2.628798,42.2566614]},"properties":{"data_type":"point","region_name":"La Rioja","region_code":"RI","area_code":"RI-CS-0000","area_name":"Cameros Nuevos"}},
{"type":"Feature","geometry":{"type":"Point","coordinates":[2.682762385741597,39.586884535339]},"properties":{"data_type":"point","region_name":"Baleares","region_code":"IB","area_code":"IB-CS-0000","area_name":"EAP Rafal Nou"}},
{"type":"Feature","geometry":{"type":"Point","coordinates":[2.650205202534024,39.58473132103914]},"properties":{"data_type":"point","region_name":"Baleares","region_code":"IB","area_code":"IB-CS-0000","area_name":"EAP S'Escorxador"}},
{"type":"Feature","geometry":{"type":"Point","coordinates":[1.446367993356041,38.91681352443494]},"properties":{"data_type":"point","region_name":"Baleares","region_code":"IB","area_code":"IB-CS-0000","area_name":"EAP Vila"}},
{"type":"Feature","geometry":{"type":"Point","coordinates":[3.431338242958867,39.70245854455651]},"properties":{"data_type":"point","region_name":"Baleares","region_code":"IB","area_code":"IB-CS-0000","area_name":"EAP Capdepera"}},
{"type":"Feature","geometry":{"type":"Point","coordinates":[3.33555249668242,39.54254016881589]},"properties":{"data_type":"point","region_name":"Baleares","region_code":"IB","area_code":"IB-CS-0000","area_name":"EAP Portocristo"}},
{"type":"Feature","geometry":{"type":"Point","coordinates":[2.717576357504501,39.53654020414682]},"properties":{"data_type":"point","region_name":"Baleares","region_code":"IB","area_code":"IB-CS-0000","area_name":"EAP Ca'n Pastilla"}},
{"type":"Feature","geometry":{"type":"Point","coordinates":[2.642664114200303,39.56530620974861]},"properties":{"data_type":"point","region_name":"Baleares","region_code":"IB","area_code":"IB-CS-0000","area_name":"EAP Casa del Mar"}},
{"type":"Feature","geometry":{"type":"Point","coordinates":[2.673397786384913,39.57912183613633]},"properties":{"data_type":"point","region_name":"Baleares","region_code":"IB","area_code":"IB-CS-0000","area_name":"EAP Son Gotleu"}},
{"type":"Feature","geometry":{"type":"Point","coordinates":[2.687600694234843,39.60185748083686]},"properties":{"data_type":"point","region_name":"Baleares","region_code":"IB","area_code":"IB-CS-0000","area_name":"EAP Pont d'Inca (Marratxi)"}},
{"type":"Feature","geometry":{"type":"Point","coordinates":[4.254164136939408,39.89140456627495]},"properties":{"data_type":"point","region_name":"Baleares","region_code":"IB","area_code":"IB-CS-0000","area_name":"EAP Dalt Sant Joan"}},
{"type":"Feature","geometry":{"type":"Point","coordinates":[2.70929451951142,39.76689528636715]},"properties":{"data_type":"point","region_name":"Baleares","region_code":"IB","area_code":"IB-CS-0000","area_name":"EAP Soller"}},
{"type":"Feature","geometry":{"type":"Point","coordinates":[1.296247093587976,38.92295276617224]},"properties":{"data_type":"point","region_name":"Baleares","region_code":"IB","area_code":"IB-CS-0000","area_name":"EAP Sant Josep"}},
{"type":"Feature","geometry":{"type":"Point","coordinates":[3.8458444227158033,39.999084025350456]},"properties":{"data_type":"point","region_name":"Baleares","region_code":"IB","area_code":"IB-CS-0000","area_name":"EAP Canal Salat"}},
{"type":"Feature","geometry":{"type":"Point","coordinates":[3.015104121971858,39.646156463094215]},"properties":{"data_type":"point","region_name":"Baleares","region_code":"IB","area_code":"IB-CS-0000","area_name":"EAP Sineu"}},
{"type":"Feature","geometry":{"type":"Point","coordinates":[1.419618730477641,38.916935094429725]},"properties":{"data_type":"point","region_name":"Baleares","region_code":"IB","area_code":"IB-CS-0000","area_name":"EAP Can Misses"}},
{"type":"Feature","geometry":{"type":"Point","coordinates":[2.48764491615898,39.51940149119588]},"properties":{"data_type":"point","region_name":"Baleares","region_code":"IB","area_code":"IB-CS-0000","area_name":"EAP Calviá-Santa Ponsa"}},
{"type":"Feature","geometry":{"type":"Point","coordinates":[2.5361956059938118,39.52672670995352]},"properties":{"data_type":"point","region_name":"Baleares","region_code":"IB","area_code":"IB-CS-0000","area_name":"EAP Palmanova"}},
{"type":"Feature","geometry":{"type":"Point","coordinates":[2.602497072995379,39.55209269853423]},"properties":{"data_type":"point","region_name":"Baleares","region_code":"IB","area_code":"IB-CS-0000","area_name":"EAP Sant Agustí"}},
{"type":"Feature","geometry":{"type":"Point","coordinates":[2.665461189569041,39.57303000129882]},"properties":{"data_type":"point","region_name":"Baleares","region_code":"IB","area_code":"IB-CS-0000","area_name":"EAP Pere Garau"}},
{"type":"Feature","geometry":{"type":"Point","coordinates":[3.016259464610469,39.87465957698884]},"properties":{"data_type":"point","region_name":"Baleares","region_code":"IB","area_code":"IB-CS-0000","area_name":"EAP Pollensa"}},
{"type":"Feature","geometry":{"type":"Point","coordinates":[1.308378900836801,38.98182680040789]},"properties":{"data_type":"point","region_name":"Baleares","region_code":"IB","area_code":"IB-CS-0000","area_name":"EAP Sant Antoni"}},
{"type":"Feature","geometry":{"type":"Point","coordinates":[2.754637271130138,39.499708175253694]},"properties":{"data_type":"point","region_name":"Baleares","region_code":"IB","area_code":"IB-CS-0000","area_name":"EAP Trencadors"}},
{"type":"Feature","geometry":{"type":"Point","coordinates":[2.889247475746589,39.487692814917764]},"properties":{"data_type":"point","region_name":"Baleares","region_code":"IB","area_code":"IB-CS-0000","area_name":"EAP Migjorn (Llucmajor)"}},
{"type":"Feature","geometry":{"type":"Point","coordinates":[1.39703669021307,38.892751680745484]},"properties":{"data_type":"point","region_name":"Baleares","region_code":"IB","area_code":"IB-CS-0000","area_name":"EAP Sant Jordi"}},
{"type":"Feature","geometry":{"type":"Point","coordinates":[2.6169465,39.5927582]},"properties":{"data_type":"point","region_name":"Baleares","region_code":"IB","area_code":"IB-CS-0000","area_name":"EAP Son Serra-La Vileta"}},
{"type":"Feature","geometry":{"type":"Point","coordinates":[2.915404343393006,39.72510425376035]},"properties":{"data_type":"point","region_name":"Baleares","region_code":"IB","area_code":"IB-CS-0000","area_name":"EAP So Na Monda"}},
{"type":"Feature","geometry":{"type":"Point","coordinates":[3.016935564367425,39.42821150345983]},"properties":{"data_type":"point","region_name":"Baleares","region_code":"IB","area_code":"IB-CS-0000","area_name":"EAP Campos"}},
{"type":"Feature","geometry":{"type":"Point","coordinates":[3.024370053148672,39.775327938202274]},"properties":{"data_type":"point","region_name":"Baleares","region_code":"IB","area_code":"IB-CS-0000","area_name":"EAP Sa Pobla"}},
{"type":"Feature","geometry":{"type":"Point","coordinates":[2.577992274713611,39.66622319772021]},"properties":{"data_type":"point","region_name":"Baleares","region_code":"IB","area_code":"IB-CS-0000","area_name":"EAP Esporles"}},
{"type":"Feature","geometry":{"type":"Point","coordinates":[3.361345153515176,39.617302530070006]},"properties":{"data_type":"point","region_name":"Baleares","region_code":"IB","area_code":"IB-CS-0000","area_name":"EAP Son Servera"}},
{"type":"Feature","geometry":{"type":"Point","coordinates":[4.011959130319181,39.98413977741758]},"properties":{"data_type":"point","region_name":"Baleares","region_code":"IB","area_code":"IB-CS-0000","area_name":"EAP Ferreries"}},
{"type":"Feature","geometry":{"type":"Point","coordinates":[4.271430888316449,39.889201844600706]},"properties":{"data_type":"point","region_name":"Baleares","region_code":"IB","area_code":"IB-CS-0000","area_name":"EAP Verge del Toro"}},
{"type":"Feature","geometry":{"type":"Point","coordinates":[1.416715112363095,38.90462038496674]},"properties":{"data_type":"point","region_name":"Baleares","region_code":"IB","area_code":"IB-CS-0000","area_name":"EAP Es Viver"}},
{"type":"Feature","geometry":{"type":"Point","coordinates":[2.6679250517789033,39.56475425377078]},"properties":{"data_type":"point","region_name":"Baleares","region_code":"IB","area_code":"IB-CS-0000","area_name":"EAP Emili Darder"}},
{"type":"Feature","geometry":{"type":"Point","coordinates":[3.125081748511486,39.85494039213563]},"properties":{"data_type":"point","region_name":"Baleares","region_code":"IB","area_code":"IB-CS-0000","area_name":"EAP Alcúdia"}},
{"type":"Feature","geometry":{"type":"Point","coordinates":[3.153198839893916,39.47500226910755]},"properties":{"data_type":"point","region_name":"Baleares","region_code":"IB","area_code":"IB-CS-0000","area_name":"EAP Felanitx"}},
{"type":"Feature","geometry":{"type":"Point","coordinates":[3.351286837402008,39.693636515096046]},"properties":{"data_type":"point","region_name":"Baleares","region_code":"IB","area_code":"IB-CS-0000","area_name":"EAP Arta"}},
{"type":"Feature","geometry":{"type":"Point","coordinates":[2.716154101092478,39.61687602199696]},"properties":{"data_type":"point","region_name":"Baleares","region_code":"IB","area_code":"IB-CS-0000","area_name":"EAP Muntanya"}},
{"type":"Feature","geometry":{"type":"Point","coordinates":[2.637814453526229,39.57668791388258]},"properties":{"data_type":"point","region_name":"Baleares","region_code":"IB","area_code":"IB-CS-0000","area_name":"EAP Valldargent"}},
{"type":"Feature","geometry":{"type":"Point","coordinates":[2.635046721533269,39.573004207595176]},"properties":{"data_type":"point","region_name":"Baleares","region_code":"IB","area_code":"IB-CS-0000","area_name":"EAP Santa Catalina"}},
{"type":"Feature","geometry":{"type":"Point","coordinates":[2.635402096370116,39.579724725344896]},"properties":{"data_type":"point","region_name":"Baleares","region_code":"IB","area_code":"IB-CS-0000","area_name":"EAP Son Pizà"}},
{"type":"Feature","geometry":{"type":"Point","coordinates":[2.902445178571373,39.720241064771]},"properties":{"data_type":"point","region_name":"Baleares","region_code":"IB","area_code":"IB-CS-0000","area_name":"EAP Inca"}},
{"type":"Feature","geometry":{"type":"Point","coordinates":[4.142273622381859,39.93353652273258]},"properties":{"data_type":"point","region_name":"Baleares","region_code":"IB","area_code":"IB-CS-0000","area_name":"EAP Es Banyer"}},
{"type":"Feature","geometry":{"type":"Point","coordinates":[3.134223699101562,39.35085748897056]},"properties":{"data_type":"point","region_name":"Baleares","region_code":"IB","area_code":"IB-CS-0000","area_name":"EAP Santanyi"}},
{"type":"Feature","geometry":{"type":"Point","coordinates":[2.647442150894427,39.59394845400394]},"properties":{"data_type":"point","region_name":"Baleares","region_code":"IB","area_code":"IB-CS-0000","area_name":"EAP Camp Redó"}},
{"type":"Feature","geometry":{"type":"Point","coordinates":[3.08368258257597,39.570269413695755]},"properties":{"data_type":"point","region_name":"Baleares","region_code":"IB","area_code":"IB-CS-0000","area_name":"EAP Villafranca"}},
{"type":"Feature","geometry":{"type":"Point","coordinates":[3.2022761,39.5675512]},"properties":{"data_type":"point","region_name":"Baleares","region_code":"IB","area_code":"IB-CS-0000","area_name":"EAP Manacor"}},
{"type":"Feature","geometry":{"type":"Point","coordinates":[2.6940838711399193,39.554941465519704]},"properties":{"data_type":"point","region_name":"Baleares","region_code":"IB","area_code":"IB-CS-0000","area_name":"EAP Coll d'en Rebassa"}},
{"type":"Feature","geometry":{"type":"Point","coordinates":[3.202823151941497,39.567631200725174]},"properties":{"data_type":"point","region_name":"Baleares","region_code":"IB","area_code":"IB-CS-0000","area_name":"EAP Manacor"}},
{"type":"Feature","geometry":{"type":"Point","coordinates":[2.71392123509887,39.57497050714736]},"properties":{"data_type":"point","region_name":"Baleares","region_code":"IB","area_code":"IB-CS-0000","area_name":"EAP Son Ferriol"}},
{"type":"Feature","geometry":{"type":"Point","coordinates":[2.425601432142348,39.57482289405764]},"properties":{"data_type":"point","region_name":"Baleares","region_code":"IB","area_code":"IB-CS-0000","area_name":"EAP Andratx"}},
{"type":"Feature","geometry":{"type":"Point","coordinates":[3.051482516286166,39.737834263351075]},"properties":{"data_type":"point","region_name":"Baleares","region_code":"IB","area_code":"IB-CS-0000","area_name":"EAP Muro"}},
{"type":"Feature","geometry":{"type":"Point","coordinates":[1.435078620988021,38.707613761156765]},"properties":{"data_type":"point","region_name":"Baleares","region_code":"IB","area_code":"IB-CS-0000","area_name":"EAP Formentera"}},
{"type":"Feature","geometry":{"type":"Point","coordinates":[2.844695031199746,39.686111672281534]},"properties":{"data_type":"point","region_name":"Baleares","region_code":"IB","area_code":"IB-CS-0000","area_name":"EAP Raiguer (Binissalem)"}},
{"type":"Feature","geometry":{"type":"Point","coordinates":[2.656069890107981,39.57008369956812]},"properties":{"data_type":"point","region_name":"Baleares","region_code":"IB","area_code":"IB-CS-0000","area_name":"EAP Escola Graduada"}},
{"type":"Feature","geometry":{"type":"Point","coordinates":[2.660880317325015,39.581899859247685]},"properties":{"data_type":"point","region_name":"Baleares","region_code":"IB","area_code":"IB-CS-0000","area_name":"EAP Arquitecte Bennassar"}},
{"type":"Feature","geometry":{"type":"Point","coordinates":[2.683660762807696,39.59492360787001]},"properties":{"data_type":"point","region_name":"Baleares","region_code":"IB","area_code":"IB-CS-0000","area_name":"EAP Son Rul-lan"}},
{"type":"Feature","geometry":{"type":"Point","coordinates":[2.680152904956945,39.599466504106964]},"properties":{"data_type":"point","region_name":"Baleares","region_code":"IB","area_code":"IB-CS-0000","area_name":"EAP Son Cladera"}},
{"type":"Feature","geometry":{"type":"Point","coordinates":[2.778628391961419,39.64835711662015]},"properties":{"data_type":"point","region_name":"Baleares","region_code":"IB","area_code":"IB-CS-0000","area_name":"EAP Santa Maria"}},
{"type":"Feature","geometry":{"type":"Point","coordinates":[1.537297617582362,38.987936874681246]},"properties":{"data_type":"point","region_name":"Baleares","region_code":"IB","area_code":"IB-CS-0000","area_name":"EAP Santa Eulalia"}},
{"type":"Feature","geometry":{"type":"Point","coordinates":[-1.576676,37.414195]},"properties":{"area_name":"C.S. Águilas/Norte","area_code":null,"data_type":"point","region_code":"MC","region_name":"Murcia"}},
{"type":"Feature","geometry":{"type":"Point","coordinates":[-1.585769922791004,37.404398115105955]},"properties":{"area_name":"C.S. Águilas/Sur","area_code":null,"data_type":"point","region_code":"MC","region_name":"Murcia"}},
{"type":"Feature","geometry":{"type":"Point","coordinates":[-1.83639,37.873532]},"properties":{"area_name":"C.S. Lorca/La Paca","area_code":null,"data_type":"point","region_code":"MC","region_name":"Murcia"}},
{"type":"Feature","geometry":{"type":"Point","coordinates":[-1.695124,37.674972]},"properties":{"area_name":"C.S. Lorca/Centro","area_code":null,"data_type":"point","region_code":"MC","region_name":"Murcia"}},
{"type":"Feature","geometry":{"type":"Point","coordinates":[-1.2065328,37.9699984]},"properties":{"area_name":"C.S. Alcantarilla","area_code":null,"data_type":"point","region_code":"MC","region_name":"Murcia"}},
{"type":"Feature","geometry":{"type":"Point","coordinates":[-1.0399376,38.2050348]},"properties":{"area_name":"C.S. Abanilla","area_code":null,"data_type":"point","region_code":"MC","region_name":"Murcia"}},
{"type":"Feature","geometry":{"type":"Point","coordinates":[-1.396326,38.201202]},"properties":{"area_name":"C.S. Abarán","area_code":null,"data_type":"point","region_code":"MC","region_name":"Murcia"}},
{"type":"Feature","geometry":{"type":"Point","coordinates":[-1.2178731,37.9744982]},"properties":{"area_name":"C.S. Alcantarilla/Sangonera La Seca","area_code":null,"data_type":"point","region_code":"MC","region_name":"Murcia"}},
{"type":"Feature","geometry":{"type":"Point","coordinates":[-1.119254,37.938055]},"properties":{"area_name":"C.S. Murcia/Algezares","area_code":null,"data_type":"point","region_code":"MC","region_name":"Murcia"}},
{"type":"Feature","geometry":{"type":"Point","coordinates":[-1.242185,38.050693]},"properties":{"area_name":"C.S. Alguazas","area_code":null,"data_type":"point","region_code":"MC","region_name":"Murcia"}},
{"type":"Feature","geometry":{"type":"Point","coordinates":[-1.427836,37.850984]},"properties":{"area_name":"C.S. Alhama","area_code":null,"data_type":"point","region_code":"MC","region_name":"Murcia"}},
{"type":"Feature","geometry":{"type":"Point","coordinates":[-1.035923,38.013079]},"properties":{"area_name":"C.S. Murcia/Alquerías","area_code":null,"data_type":"point","region_code":"MC","region_name":"Murcia"}},
{"type":"Feature","geometry":{"type":"Point","coordinates":[-1.300281,38.119188]},"properties":{"area_name":"C.S. Archena","area_code":null,"data_type":"point","region_code":"MC","region_name":"Murcia"}},
{"type":"Feature","geometry":{"type":"Point","coordinates":[-1.688565,37.67618]},"properties":{"area_name":"C.S. Lorca/San Diego","area_code":null,"data_type":"point","region_code":"MC","region_name":"Murcia"}},
{"type":"Feature","geometry":{"type":"Point","coordinates":[-0.983895,37.603064]},"properties":{"area_name":"C.S. Cartagena/Casco Antiguo","area_code":null,"data_type":"point","region_code":"MC","region_name":"Murcia"}},
{"type":"Feature","geometry":{"type":"Point","coordinates":[-1.705564,37.661073]},"properties":{"area_name":"C.S. Lorca/San José (Sur)","area_code":null,"data_type":"point","region_code":"MC","region_name":"Murcia"}},
{"type":"Feature","geometry":{"type":"Point","coordinates":[-1.131839,37.981568]},"properties":{"area_name":"C.S. Murcia/Barrio Del Carmen","area_code":null,"data_type":"point","region_code":"MC","region_name":"Murcia"}},
{"type":"Feature","geometry":{"type":"Point","coordinates":[-1.069922,37.975022]},"properties":{"area_name":"C.S. Murcia/Beniaján","area_code":null,"data_type":"point","region_code":"MC","region_name":"Murcia"}},
{"type":"Feature","geometry":{"type":"Point","coordinates":[-0.989264,37.621444]},"properties":{"area_name":"C.S. Cartagena/Isaac Peral","area_code":null,"data_type":"point","region_code":"MC","region_name":"Murcia"}},
{"type":"Feature","geometry":{"type":"Point","coordinates":[-1.000507,38.047719]},"properties":{"area_name":"C.S. Beniel","area_code":null,"data_type":"point","region_code":"MC","region_name":"Murcia"}},
{"type":"Feature","geometry":{"type":"Point","coordinates":[-1.375555,38.178577]},"properties":{"area_name":"C.S. Blanca","area_code":null,"data_type":"point","region_code":"MC","region_name":"Murcia"}},
{"type":"Feature","geometry":{"type":"Point","coordinates":[-1.126678,38.026721]},"properties":{"area_name":"C.S. Murcia/Cabezo de Torres","area_code":null,"data_type":"point","region_code":"MC","region_name":"Murcia"}},
{"type":"Feature","geometry":{"type":"Point","coordinates":[-1.160645,37.830497]},"properties":{"area_name":"C.S. Murcia/Campo de Cartagena","area_code":null,"data_type":"point","region_code":"MC","region_name":"Murcia"}},
{"type":"Feature","geometry":{"type":"Point","coordinates":[-1.247007,38.025145]},"properties":{"area_name":"C.S. Las Torres de Cotillas","area_code":null,"data_type":"point","region_code":"MC","region_name":"Murcia"}},
{"type":"Feature","geometry":{"type":"Point","coordinates":[-1.255542,38.08475]},"properties":{"area_name":"C.S. Lorquí","area_code":null,"data_type":"point","region_code":"MC","region_name":"Murcia"}},
{"type":"Feature","geometry":{"type":"Point","coordinates":[-1.21106,38.060197]},"properties":{"area_name":"C.S. Molina Norte (Antonio Garcia)","area_code":null,"data_type":"point","region_code":"MC","region_name":"Murcia"}},
{"type":"Feature","geometry":{"type":"Point","coordinates":[-1.210138,38.048497]},"properties":{"area_name":"C.S. Molina Sur (Jesus Marin)","area_code":null,"data_type":"point","region_code":"MC","region_name":"Murcia"}},
{"type":"Feature","geometry":{"type":"Point","coordinates":[-1.323949,38.473305]},"properties":{"area_name":"C.S. Jumilla","area_code":null,"data_type":"point","region_code":"MC","region_name":"Murcia"}},
{"type":"Feature","geometry":{"type":"Point","coordinates":[-1.106132,38.615923]},"properties":{"area_name":"C.S. Yecla/Este (Mariano Yago)","area_code":null,"data_type":"point","region_code":"MC","region_name":"Murcia"}},
{"type":"Feature","geometry":{"type":"Point","coordinates":[-1.272118,38.077031]},"properties":{"area_name":"C.S. Ceutí","area_code":null,"data_type":"point","region_code":"MC","region_name":"Murcia"}},
{"type":"Feature","geometry":{"type":"Point","coordinates":[-1.130508,38.615445]},"properties":{"area_name":"C.S. Yecla/Oeste (Francisco Palao)","area_code":null,"data_type":"point","region_code":"MC","region_name":"Murcia"}},
{"type":"Feature","geometry":{"type":"Point","coordinates":[-1.4133582928037485,38.24038315704226]},"properties":{"area_name":"C.S. Cieza/Este","area_code":null,"data_type":"point","region_code":"MC","region_name":"Murcia"}},
{"type":"Feature","geometry":{"type":"Point","coordinates":[-1.4261469817509258,38.23505349466457]},"properties":{"area_name":"C.S. Cieza/Oeste","area_code":null,"data_type":"point","region_code":"MC","region_name":"Murcia"}},
{"type":"Feature","geometry":{"type":"Point","coordinates":[-1.4971510913113448,37.76943843672541]},"properties":{"area_name":"C.S. Totana/Norte","area_code":null,"data_type":"point","region_code":"MC","region_name":"Murcia"}},
{"type":"Feature","geometry":{"type":"Point","coordinates":[-1.498479001534878,37.76228975217254]},"properties":{"area_name":"C.S. Totana/Sur","area_code":null,"data_type":"point","region_code":"MC","region_name":"Murcia"}},
{"type":"Feature","geometry":{"type":"Point","coordinates":[-1.170977,37.938952]},"properties":{"area_name":"C.S. Murcia/El Palmar","area_code":null,"data_type":"point","region_code":"MC","region_name":"Murcia"}},
{"type":"Feature","geometry":{"type":"Point","coordinates":[-1.147653,37.998192]},"properties":{"area_name":"C.S. Murcia/El Ranero","area_code":null,"data_type":"point","region_code":"MC","region_name":"Murcia"}},
{"type":"Feature","geometry":{"type":"Point","coordinates":[-1.151633,38.012141]},"properties":{"area_name":"C.S. Murcia/Espinardo","area_code":null,"data_type":"point","region_code":"MC","region_name":"Murcia"}},
{"type":"Feature","geometry":{"type":"Point","coordinates":[-1.124768,38.182491]},"properties":{"area_name":"C.S. Fortuna","area_code":null,"data_type":"point","region_code":"MC","region_name":"Murcia"}},
{"type":"Feature","geometry":{"type":"Point","coordinates":[-1.144542,37.937733]},"properties":{"area_name":"C.S. Murcia/La Alberca","area_code":null,"data_type":"point","region_code":"MC","region_name":"Murcia"}},
{"type":"Feature","geometry":{"type":"Point","coordinates":[-1.961585,38.047162]},"properties":{"area_name":"C.S. Caravaca/Barranda","area_code":null,"data_type":"point","region_code":"MC","region_name":"Murcia"}},
{"type":"Feature","geometry":{"type":"Point","coordinates":[-1.667572,38.045742]},"properties":{"area_name":"C.S. Bullas","area_code":null,"data_type":"point","region_code":"MC","region_name":"Murcia"}},
{"type":"Feature","geometry":{"type":"Point","coordinates":[-1.866056,38.10363]},"properties":{"area_name":"C.S. Caravaca","area_code":null,"data_type":"point","region_code":"MC","region_name":"Murcia"}},
{"type":"Feature","geometry":{"type":"Point","coordinates":[-1.79561,38.093608]},"properties":{"area_name":"C.S. Cehegín","area_code":null,"data_type":"point","region_code":"MC","region_name":"Murcia"}},
{"type":"Feature","geometry":{"type":"Point","coordinates":[-1.891354,38.189305]},"properties":{"area_name":"C.S. Moratalla","area_code":null,"data_type":"point","region_code":"MC","region_name":"Murcia"}},
{"type":"Feature","geometry":{"type":"Point","coordinates":[-1.09594,38.021734]},"properties":{"area_name":"C.S. Murcia/Monteagudo","area_code":null,"data_type":"point","region_code":"MC","region_name":"Murcia"}},
{"type":"Feature","geometry":{"type":"Point","coordinates":[-1.491641,38.038442]},"properties":{"area_name":"C.S. Mula","area_code":null,"data_type":"point","region_code":"MC","region_name":"Murcia"}},
{"type":"Feature","geometry":{"type":"Point","coordinates":[-0.862362,37.648907]},"properties":{"area_name":"C.S. Cartagena/Mar Menor","area_code":null,"data_type":"point","region_code":"MC","region_name":"Murcia"}},
{"type":"Feature","geometry":{"type":"Point","coordinates":[-1.176449,37.721573]},"properties":{"area_name":"C.S. Fuente Álamo","area_code":null,"data_type":"point","region_code":"MC","region_name":"Murcia"}},
{"type":"Feature","geometry":{"type":"Point","coordinates":[-0.875149,37.621858]},"properties":{"area_name":"C.S. La Unión","area_code":null,"data_type":"point","region_code":"MC","region_name":"Murcia"}},
{"type":"Feature","geometry":{"type":"Point","coordinates":[-0.995823,37.630669]},"properties":{"area_name":"C.S. Cartagena/Los Barreros","area_code":null,"data_type":"point","region_code":"MC","region_name":"Murcia"}},
{"type":"Feature","geometry":{"type":"Point","coordinates":[-1.009038,37.641997]},"properties":{"area_name":"C.S. Cartagena/Los Dolores","area_code":null,"data_type":"point","region_code":"MC","region_name":"Murcia"}},
{"type":"Feature","geometry":{"type":"Point","coordinates":[-1.140743,37.986862]},"properties":{"area_name":"C.S. Murcia/Centro (San Juan)","area_code":null,"data_type":"point","region_code":"MC","region_name":"Murcia"}},
{"type":"Feature","geometry":{"type":"Point","coordinates":[-1.119576,37.975657]},"properties":{"area_name":"C.S. Murcia/Infante","area_code":null,"data_type":"point","region_code":"MC","region_name":"Murcia"}},
{"type":"Feature","geometry":{"type":"Point","coordinates":[-1.313059,37.597992]},"properties":{"area_name":"C.S. Mazarrón","area_code":null,"data_type":"point","region_code":"MC","region_name":"Murcia"}},
{"type":"Feature","geometry":{"type":"Point","coordinates":[-1.140722,37.986811]},"properties":{"area_name":"C.S. Murcia/San Andrés","area_code":null,"data_type":"point","region_code":"MC","region_name":"Murcia"}},
{"type":"Feature","geometry":{"type":"Point","coordinates":[-1.046142,37.630361]},"properties":{"area_name":"C.S. Cartagena/Marfagones","area_code":null,"data_type":"point","region_code":"MC","region_name":"Murcia"}},
{"type":"Feature","geometry":{"type":"Point","coordinates":[-0.989399,37.709055]},"properties":{"area_name":"C.S. Cartagena/Pozo Estrecho","area_code":null,"data_type":"point","region_code":"MC","region_name":"Murcia"}},
{"type":"Feature","geometry":{"type":"Point","coordinates":[-1.259313,37.565835]},"properties":{"area_name":"C.S. Puerto de Mazarrón","area_code":null,"data_type":"point","region_code":"MC","region_name":"Murcia"}},
{"type":"Feature","geometry":{"type":"Point","coordinates":[-0.999422,37.618947]},"properties":{"area_name":"C.S. Cartagena/San Antón","area_code":null,"data_type":"point","region_code":"MC","region_name":"Murcia"}},
{"type":"Feature","geometry":{"type":"Point","coordinates":[-1.102796,37.995816]},"properties":{"area_name":"C.S. Murcia/Puente Tocinos","area_code":null,"data_type":"point","region_code":"MC","region_name":"Murcia"}},
{"type":"Feature","geometry":{"type":"Point","coordinates":[-0.826689,37.801572]},"properties":{"area_name":"C.S. San Javier","area_code":null,"data_type":"point","region_code":"MC","region_name":"Murcia"}},
{"type":"Feature","geometry":{"type":"Point","coordinates":[-0.791324,37.832261]},"properties":{"area_name":"C.S. San Pedro del Pinatar","area_code":null,"data_type":"point","region_code":"MC","region_name":"Murcia"}},
{"type":"Feature","geometry":{"type":"Point","coordinates":[-1.212133,37.93071]},"properties":{"area_name":"C.S. Murcia/Sangonera La Verde","area_code":null,"data_type":"point","region_code":"MC","region_name":"Murcia"}},
{"type":"Feature","geometry":{"type":"Point","coordinates":[-0.972075,37.597411]},"properties":{"area_name":"C.S. Cartagena/Santa Lucía","area_code":null,"data_type":"point","region_code":"MC","region_name":"Murcia"}},
{"type":"Feature","geometry":{"type":"Point","coordinates":[-1.13937,37.995706]},"properties":{"area_name":"C.S. Murcia/Santa María de Gracia","area_code":null,"data_type":"point","region_code":"MC","region_name":"Murcia"}},
{"type":"Feature","geometry":{"type":"Point","coordinates":[-1.05031,38.063466]},"properties":{"area_name":"C.S. Santomera","area_code":null,"data_type":"point","region_code":"MC","region_name":"Murcia"}},
{"type":"Feature","geometry":{"type":"Point","coordinates":[-1.124146,37.994117]},"properties":{"area_name":"C.S. Murcia/Vista Alegre","area_code":null,"data_type":"point","region_code":"MC","region_name":"Murcia"}},
{"type":"Feature","geometry":{"type":"Point","coordinates":[-1.118438,37.984579]},"properties":{"area_name":"C.S. Murcia/Vistabella","area_code":null,"data_type":"point","region_code":"MC","region_name":"Murcia"}},
{"type":"Feature","geometry":{"type":"Point","coordinates":[-0.9494537114287539,37.74108712510034]},"properties":{"area_name":"C.S. Torre Pacheco/Este","area_code":null,"data_type":"point","region_code":"MC","region_name":"Murcia"}},
{"type":"Feature","geometry":{"type":"Point","coordinates":[-0.9588116863587482,37.748154862504215]},"properties":{"area_name":"C.S. Torre Pacheco/Oeste","area_code":null,"data_type":"point","region_code":"MC","region_name":"Murcia"}},
{"type":"Feature","geometry":{"type":"Point","coordinates":[-1.192338,37.991326]},"properties":{"area_name":"C.S. Murcia/La Ñora","area_code":null,"data_type":"point","region_code":"MC","region_name":"Murcia"}},
{"type":"Feature","geometry":{"type":"Point","coordinates":[-0.978536,37.613887]},"properties":{"area_name":"C.S. Cartagena/Este","area_code":null,"data_type":"point","region_code":"MC","region_name":"Murcia"}},
{"type":"Feature","geometry":{"type":"Point","coordinates":[-0.978536,37.613887]},"properties":{"area_name":"C.S. Cartagena/Oeste","area_code":null,"data_type":"point","region_code":"MC","region_name":"Murcia"}},
{"type":"Feature","geometry":{"type":"Point","coordinates":[-0.733552,37.678433]},"properties":{"area_name":"C.S. La Manga","area_code":null,"data_type":"point","region_code":"MC","region_name":"Murcia"}},
{"type":"Feature","geometry":{"type":"Point","coordinates":[-0.849814,37.74362]},"properties":{"area_name":"C.S. Los Alcázares","area_code":null,"data_type":"point","region_code":"MC","region_name":"Murcia"}},
{"type":"Feature","geometry":{"type":"Point","coordinates":[-1.70669,38.228202]},"properties":{"area_name":"C.S. Calasparra","area_code":null,"data_type":"point","region_code":"MC","region_name":"Murcia"}},
{"type":"Feature","geometry":{"type":"Point","coordinates":[-1.810167,37.562205]},"properties":{"area_name":"C.S. Puerto Lumbreras","area_code":null,"data_type":"point","region_code":"MC","region_name":"Murcia"}},
{"type":"Feature","geometry":{"type":"Point","coordinates":[-1.1322293471607545,37.971644214832565]},"properties":{"area_name":"C.S. Murcia/Sur","area_code":null,"data_type":"point","region_code":"MC","region_name":"Murcia"}},
{"type":"Feature","geometry":{"type":"Point","coordinates":[-1.1527236156677407,37.95582844160625]},"properties":{"area_name":"C.S. Murcia/Aljucer","area_code":null,"data_type":"point","region_code":"MC","region_name":"Murcia"}},
{"type":"Feature","geometry":{"type":"Point","coordinates":[-1.1721032938353926,37.97216616391769]},